[
  {
    "countryname": "Afghanistan",
    "ccode": 700,
    "iso3c": "AFG",
    "basename": "Bagram AB",
    "lat": 34.946222,
    "lon": 69.264639,
    "base": 1,
    "lilypad": 0,
    "fundedsite": 0
  },
  {
    "countryname": "Afghanistan",
    "ccode": 700,
    "iso3c": "AFG",
    "basename": "Kandahar Airfield",
    "lat": 31.506807,
    "lon": 65.847511,
    "base": 1,
    "lilypad": 0,
    "fundedsite": 0
  },
  {
    "countryname": "Afghanistan",
    "ccode": 700,
    "iso3c": "AFG",
    "basename": "Mazar-e-Sharif",
    "lat": 36.707497,
    "lon": 67.209892,
    "base": 1,
    "lilypad": 0,
    "fundedsite": 0
  },
  {
    "countryname": "Afghanistan",
    "ccode": 700,
    "iso3c": "AFG",
    "basename": "Gardez",
    "lat": 33.625017,
    "lon": 69.23584,
    "base": 1,
    "lilypad": 0,
    "fundedsite": 0
  },
  {
    "countryname": "Afghanistan",
    "ccode": 700,
    "iso3c": "AFG",
    "basename": "Kabul",
    "lat": 34.534477,
    "lon": 69.150352,
    "base": 1,
    "lilypad": 0,
    "fundedsite": 0
  },
  {
    "countryname": "Afghanistan",
    "ccode": 700,
    "iso3c": "AFG",
    "basename": "Herat",
    "lat": 34.345236,
    "lon": 62.205234,
    "base": 1,
    "lilypad": 0,
    "fundedsite": 0
  },
  {
    "countryname": "Afghanistan",
    "ccode": 700,
    "iso3c": "AFG",
    "basename": "Shindand",
    "lat": 33.306995,
    "lon": 62.136453,
    "base": 1,
    "lilypad": 0,
    "fundedsite": 0
  },
  {
    "countryname": "Afghanistan",
    "ccode": 700,
    "iso3c": "AFG",
    "basename": "Sharab",
    "lat": 31.537207,
    "lon": 64.230651,
    "base": 1,
    "lilypad": 0,
    "fundedsite": 0
  },
  {
    "countryname": "Afghanistan",
    "ccode": 700,
    "iso3c": "AFG",
    "basename": "Jalalabad",
    "lat": 34.3983,
    "lon": 70.500641,
    "base": 1,
    "lilypad": 0,
    "fundedsite": 0
  },
  {
    "countryname": "American Samoa",
    "ccode": 2,
    "iso3c": "USA",
    "basename": "American Samoa",
    "lat": -14.1646,
    "lon": -170.4202,
    "base": 0,
    "lilypad": 1,
    "fundedsite": 0
  },
  {
    "countryname": "Antarctica",
    "ccode": 920,
    "iso3c": "NZL",
    "basename": "McMurdo Station",
    "lat": -77.85,
    "lon": 166.666667,
    "base": 0,
    "lilypad": 1,
    "fundedsite": 0
  },
  {
    "countryname": "Argentina",
    "ccode": 160,
    "iso3c": "ARG",
    "basename": "Chaco",
    "lat": -27.45139,
    "lon": -58.98667,
    "base": 0,
    "lilypad": 0,
    "fundedsite": 1
  },
  {
    "countryname": "Aruba",
    "ccode": 210,
    "iso3c": "NLD",
    "basename": "Aruba",
    "lat": 12.52111,
    "lon": -69.968338,
    "base": 0,
    "lilypad": 1,
    "fundedsite": 0
  },
  {
    "countryname": "Ascension Island",
    "ccode": 200,
    "iso3c": "GBR",
    "basename": "Ascension Island",
    "lat": -7.946717,
    "lon": -14.355916,
    "base": 1,
    "lilypad": 0,
    "fundedsite": 0
  },
  {
    "countryname": "Australia",
    "ccode": 900,
    "iso3c": "AUS",
    "basename": "Naval Communication Station Harold E. Holt; Exmouth, Northwest Cape",
    "lat": -21.882527,
    "lon": 114.1333,
    "base": 1,
    "lilypad": 0,
    "fundedsite": 0
  },
  {
    "countryname": "Australia",
    "ccode": 900,
    "iso3c": "AUS",
    "basename": "Joint Defence Facility Pine Gap, Alice Springs",
    "lat": -25.274398,
    "lon": 133.77514,
    "base": 1,
    "lilypad": 0,
    "fundedsite": 0
  },
  {
    "countryname": "Australia",
    "ccode": 900,
    "iso3c": "AUS",
    "basename": "Darwin, Robertson Barracks",
    "lat": -12.445,
    "lon": 130.974444,
    "base": 1,
    "lilypad": 0,
    "fundedsite": 0
  },
  {
    "countryname": "Australia",
    "ccode": 900,
    "iso3c": "AUS",
    "basename": "Kojarena, near Geraldton MUOS, ECHELON Intel and Communications Site",
    "lat": -28.695,
    "lon": 114.842222,
    "base": 0,
    "lilypad": 1,
    "fundedsite": 0
  },
  {
    "countryname": "Bahamas, The",
    "ccode": 31,
    "iso3c": "BHS",
    "basename": "Andros Island",
    "lat": 24.706381,
    "lon": -78.019539,
    "base": 1,
    "lilypad": 0,
    "fundedsite": 0
  },
  {
    "countryname": "Bahrain",
    "ccode": 692,
    "iso3c": "BHR",
    "basename": "Naval Support Activity Bahrain, Manama",
    "lat": 26.216667,
    "lon": 50.583333,
    "base": 1,
    "lilypad": 0,
    "fundedsite": 0
  },
  {
    "countryname": "Bahrain",
    "ccode": 692,
    "iso3c": "BHR",
    "basename": "Al Jufayr",
    "lat": 26.211111,
    "lon": 50.601111,
    "base": 1,
    "lilypad": 0,
    "fundedsite": 0
  },
  {
    "countryname": "Bahrain",
    "ccode": 692,
    "iso3c": "BHR",
    "basename": "Isa Air Base",
    "lat": 25.918333,
    "lon": 50.590556,
    "base": 1,
    "lilypad": 0,
    "fundedsite": 0
  },
  {
    "countryname": "Bahrain",
    "ccode": 692,
    "iso3c": "BHR",
    "basename": "Mina Salman",
    "lat": 26.201,
    "lon": 50.607,
    "base": 1,
    "lilypad": 0,
    "fundedsite": 0
  },
  {
    "countryname": "Belgium",
    "ccode": 211,
    "iso3c": "BEL",
    "basename": "USAG Benelux Brussels",
    "lat": 50.85034,
    "lon": 4.35171,
    "base": 1,
    "lilypad": 0,
    "fundedsite": 0
  },
  {
    "countryname": "Belgium",
    "ccode": 211,
    "iso3c": "BEL",
    "basename": "Chievres Air Base",
    "lat": 50.575833,
    "lon": 3.831111,
    "base": 1,
    "lilypad": 0,
    "fundedsite": 0
  },
  {
    "countryname": "Belgium",
    "ccode": 211,
    "iso3c": "BEL",
    "basename": "Florennes Air Base",
    "lat": 50.243333,
    "lon": 4.645833,
    "base": 1,
    "lilypad": 0,
    "fundedsite": 0
  },
  {
    "countryname": "Belgium",
    "ccode": 211,
    "iso3c": "BEL",
    "basename": "Kleine-Brogel\t Air Base",
    "lat": 51.168333,
    "lon": 5.47,
    "base": 1,
    "lilypad": 0,
    "fundedsite": 0
  },
  {
    "countryname": "Belgium",
    "ccode": 211,
    "iso3c": "BEL",
    "basename": "Mons/Shape",
    "lat": 50.454241,
    "lon": 3.956659,
    "base": 1,
    "lilypad": 0,
    "fundedsite": 0
  },
  {
    "countryname": "Belgium",
    "ccode": 211,
    "iso3c": "BEL",
    "basename": "Zutendaal",
    "lat": 50.9475,
    "lon": 5.590556,
    "base": 0,
    "lilypad": 1,
    "fundedsite": 0
  },
  {
    "countryname": "Belize",
    "ccode": 80,
    "iso3c": "BLZ",
    "basename": "Hunting Caye",
    "lat": 18.001593,
    "lon": -87.943283,
    "base": 0,
    "lilypad": 0,
    "fundedsite": 1
  },
  {
    "countryname": "Belize",
    "ccode": 80,
    "iso3c": "BLZ",
    "basename": "Hattieville",
    "lat": 17.45,
    "lon": -88.383333,
    "base": 0,
    "lilypad": 0,
    "fundedsite": 1
  },
  {
    "countryname": "Belize",
    "ccode": 80,
    "iso3c": "BLZ",
    "basename": "Ladyville",
    "lat": 17.5552,
    "lon": -88.3142,
    "base": 0,
    "lilypad": 0,
    "fundedsite": 1
  },
  {
    "countryname": "Belize",
    "ccode": 80,
    "iso3c": "BLZ",
    "basename": "Big Creek FOS",
    "lat": 16.514228,
    "lon": -88.404336,
    "base": 0,
    "lilypad": 0,
    "fundedsite": 1
  },
  {
    "countryname": "Belize",
    "ccode": 80,
    "iso3c": "BLZ",
    "basename": "San Pedro Caye",
    "lat": 17.921389,
    "lon": -87.961111,
    "base": 0,
    "lilypad": 0,
    "fundedsite": 1
  },
  {
    "countryname": "Belize",
    "ccode": 80,
    "iso3c": "BLZ",
    "basename": "Belize City",
    "lat": 17.5046,
    "lon": -88.1962,
    "base": 0,
    "lilypad": 0,
    "fundedsite": 1
  },
  {
    "countryname": "Belize",
    "ccode": 80,
    "iso3c": "BLZ",
    "basename": "Ambergris Caye",
    "lat": 18.013947,
    "lon": -87.931039,
    "base": 0,
    "lilypad": 0,
    "fundedsite": 1
  },
  {
    "countryname": "Belize",
    "ccode": 80,
    "iso3c": "BLZ",
    "basename": "OPS Price Barracks",
    "lat": 17.554482,
    "lon": -88.30572,
    "base": 0,
    "lilypad": 0,
    "fundedsite": 1
  },
  {
    "countryname": "Botswana",
    "ccode": 571,
    "iso3c": "BWA",
    "basename": "Gabrone",
    "lat": -24.602709,
    "lon": 25.866962,
    "base": 0,
    "lilypad": 1,
    "fundedsite": 0
  },
  {
    "countryname": "BR Indian Ocean Territory",
    "ccode": 200,
    "iso3c": "GBR",
    "basename": "Diego Garcia",
    "lat": -7.3195,
    "lon": 72.4229,
    "base": 1,
    "lilypad": 0,
    "fundedsite": 0
  },
  {
    "countryname": "Bulgaria",
    "ccode": 355,
    "iso3c": "BGR",
    "basename": "Novo Selo Training Area",
    "lat": 42.720278,
    "lon": 26.591944,
    "base": 1,
    "lilypad": 0,
    "fundedsite": 0
  },
  {
    "countryname": "Bulgaria",
    "ccode": 355,
    "iso3c": "BGR",
    "basename": "Aitos (Aytos) Storage Facility",
    "lat": 42.711389,
    "lon": 27.232778,
    "base": 0,
    "lilypad": 1,
    "fundedsite": 0
  },
  {
    "countryname": "Bulgaria",
    "ccode": 355,
    "iso3c": "BGR",
    "basename": "Bezmer Air Base",
    "lat": 42.454722,
    "lon": 26.352222,
    "base": 0,
    "lilypad": 1,
    "fundedsite": 0
  },
  {
    "countryname": "Bulgaria",
    "ccode": 355,
    "iso3c": "BGR",
    "basename": "Graf Ignatievo Air Base",
    "lat": 42.290278,
    "lon": 24.713889,
    "base": 0,
    "lilypad": 1,
    "fundedsite": 0
  },
  {
    "countryname": "Burkina Faso",
    "ccode": 439,
    "iso3c": "BFA",
    "basename": "Ouagadougou International Airport",
    "lat": 12.353056,
    "lon": -1.512222,
    "base": 0,
    "lilypad": 1,
    "fundedsite": 0
  },
  {
    "countryname": "Burundi",
    "ccode": 516,
    "iso3c": "BDI",
    "basename": "Bujumbura",
    "lat": -3.383333,
    "lon": 29.36667,
    "base": 0,
    "lilypad": 1,
    "fundedsite": 0
  },
  {
    "countryname": "Cambodia",
    "ccode": 811,
    "iso3c": "KHM",
    "basename": "Navy Med Research Unit 2, Pnom Pehn",
    "lat": 11.5449,
    "lon": 104.8922,
    "base": 0,
    "lilypad": 1,
    "fundedsite": 0
  },
  {
    "countryname": "Cameroon",
    "ccode": 471,
    "iso3c": "CMR",
    "basename": "Contingency Location Garoua",
    "lat": 9.3361,
    "lon": 13.3756,
    "base": 0,
    "lilypad": 1,
    "fundedsite": 0
  },
  {
    "countryname": "Cameroon",
    "ccode": 471,
    "iso3c": "CMR",
    "basename": "Salak, Maroua",
    "lat": 10.4535,
    "lon": 14.2558,
    "base": 0,
    "lilypad": 1,
    "fundedsite": 0
  },
  {
    "countryname": "Cameroon",
    "ccode": 471,
    "iso3c": "CMR",
    "basename": "Douala",
    "lat": "NA",
    "lon": "NA",
    "base": 0,
    "lilypad": 1,
    "fundedsite": 0
  },
  {
    "countryname": "Canada",
    "ccode": 20,
    "iso3c": "CAN",
    "basename": "NA",
    "lat": 56.130366,
    "lon": -106.34677,
    "base": 0,
    "lilypad": 1,
    "fundedsite": 0
  },
  {
    "countryname": "Canada",
    "ccode": 20,
    "iso3c": "CAN",
    "basename": "Argentia, Newfoundland",
    "lat": 47.306111,
    "lon": -53.99,
    "base": 1,
    "lilypad": 0,
    "fundedsite": 0
  },
  {
    "countryname": "Central African Republic",
    "ccode": 482,
    "iso3c": "CAF",
    "basename": "Bangui",
    "lat": 4.366667,
    "lon": 18.583333,
    "base": 0,
    "lilypad": 1,
    "fundedsite": 0
  },
  {
    "countryname": "Central African Republic",
    "ccode": 482,
    "iso3c": "CAF",
    "basename": "Djema",
    "lat": 6.05,
    "lon": 25.316667,
    "base": 0,
    "lilypad": 1,
    "fundedsite": 0
  },
  {
    "countryname": "Chad",
    "ccode": 483,
    "iso3c": "TCD",
    "basename": "N'Djamena",
    "lat": 12.1396,
    "lon": 15.04012,
    "base": 0,
    "lilypad": 1,
    "fundedsite": 0
  },
  {
    "countryname": "Chile",
    "ccode": 155,
    "iso3c": "CHL",
    "basename": "Fuerte Aguayo NB, Concï¿½n",
    "lat": -32.947314,
    "lon": -71.451656,
    "base": 0,
    "lilypad": 0,
    "fundedsite": 1
  },
  {
    "countryname": "Colombia",
    "ccode": 100,
    "iso3c": "COL",
    "basename": "Palanquero AB/Cpt German Olano Moreno AB",
    "lat": 5.483611,
    "lon": -74.657222,
    "base": 0,
    "lilypad": 1,
    "fundedsite": 0
  },
  {
    "countryname": "Colombia",
    "ccode": 100,
    "iso3c": "COL",
    "basename": "Tolemaida AB",
    "lat": 4.244722,
    "lon": -74.649722,
    "base": 0,
    "lilypad": 1,
    "fundedsite": 0
  },
  {
    "countryname": "Colombia",
    "ccode": 100,
    "iso3c": "COL",
    "basename": "Larandia",
    "lat": 1.478889,
    "lon": -75.486667,
    "base": 0,
    "lilypad": 1,
    "fundedsite": 0
  },
  {
    "countryname": "Colombia",
    "ccode": 100,
    "iso3c": "COL",
    "basename": "Bahia de Malaga",
    "lat": 4.1,
    "lon": -77.35,
    "base": 0,
    "lilypad": 1,
    "fundedsite": 0
  },
  {
    "countryname": "Colombia",
    "ccode": 100,
    "iso3c": "COL",
    "basename": "Tres Esquinas AB",
    "lat": 0.745833,
    "lon": -75.233889,
    "base": 0,
    "lilypad": 0,
    "fundedsite": 1
  },
  {
    "countryname": "Congo, Democratic Republic",
    "ccode": 484,
    "iso3c": "COG",
    "basename": "Dungu",
    "lat": 3.62564,
    "lon": 28.560977,
    "base": 0,
    "lilypad": 1,
    "fundedsite": 0
  },
  {
    "countryname": "Costa Rica",
    "ccode": 94,
    "iso3c": "CRI",
    "basename": "NA",
    "lat": 9.933333,
    "lon": -84.083333,
    "base": 0,
    "lilypad": 1,
    "fundedsite": 0
  },
  {
    "countryname": "Costa Rica",
    "ccode": 94,
    "iso3c": "CRI",
    "basename": "Caldera",
    "lat": 9.912169,
    "lon": -84.713904,
    "base": 0,
    "lilypad": 0,
    "fundedsite": 1
  },
  {
    "countryname": "Costa Rica",
    "ccode": 94,
    "iso3c": "CRI",
    "basename": "Liberia",
    "lat": 10.633333,
    "lon": -85.433333,
    "base": 0,
    "lilypad": 0,
    "fundedsite": 1
  },
  {
    "countryname": "Costa Rica",
    "ccode": 94,
    "iso3c": "CRI",
    "basename": "Colorado",
    "lat": 10.692328,
    "lon": -83.720075,
    "base": 0,
    "lilypad": 0,
    "fundedsite": 1
  },
  {
    "countryname": "Costa Rica",
    "ccode": 94,
    "iso3c": "CRI",
    "basename": "Flamingo",
    "lat": 10.433803,
    "lon": -85.792269,
    "base": 0,
    "lilypad": 0,
    "fundedsite": 1
  },
  {
    "countryname": "Cuba",
    "ccode": 40,
    "iso3c": "CUB",
    "basename": "Guantanamo Bay\tCuba",
    "lat": 20.0117,
    "lon": -75.1216,
    "base": 1,
    "lilypad": 0,
    "fundedsite": 0
  },
  {
    "countryname": "Denmark",
    "ccode": 390,
    "iso3c": "DNK",
    "basename": "Karap Denmark",
    "lat": 56.297914,
    "lon": 9.099389,
    "base": 0,
    "lilypad": 1,
    "fundedsite": 0
  },
  {
    "countryname": "Djibouti",
    "ccode": 522,
    "iso3c": "DJI",
    "basename": "Camp Lemonnier",
    "lat": 11.543611,
    "lon": 43.148611,
    "base": 1,
    "lilypad": 0,
    "fundedsite": 0
  },
  {
    "countryname": "Djibouti",
    "ccode": 522,
    "iso3c": "DJI",
    "basename": "Chabelley",
    "lat": 11.5163,
    "lon": 43.0602,
    "base": 0,
    "lilypad": 1,
    "fundedsite": 0
  },
  {
    "countryname": "Dominican Republic",
    "ccode": 42,
    "iso3c": "DOM",
    "basename": "Saona Island",
    "lat": 18.155556,
    "lon": -68.699444,
    "base": 0,
    "lilypad": 0,
    "fundedsite": 1
  },
  {
    "countryname": "Ecuador",
    "ccode": 130,
    "iso3c": "ECU",
    "basename": "Lita, Carchi",
    "lat": 0.833333,
    "lon": -78.466667,
    "base": 0,
    "lilypad": 0,
    "fundedsite": 1
  },
  {
    "countryname": "Egypt",
    "ccode": 651,
    "iso3c": "EGY",
    "basename": "Cairo",
    "lat": 30.04442,
    "lon": 31.235712,
    "base": 0,
    "lilypad": 1,
    "fundedsite": 0
  },
  {
    "countryname": "El Salvador",
    "ccode": 92,
    "iso3c": "SLV",
    "basename": "Comalapa",
    "lat": 13.440833,
    "lon": -89.055556,
    "base": 1,
    "lilypad": 0,
    "fundedsite": 0
  },
  {
    "countryname": "El Salvador",
    "ccode": 92,
    "iso3c": "SLV",
    "basename": "Miraflores",
    "lat": 13.423247,
    "lon": -88.085408,
    "base": 0,
    "lilypad": 0,
    "fundedsite": 1
  },
  {
    "countryname": "El Salvador",
    "ccode": 92,
    "iso3c": "SLV",
    "basename": "CEOPAZ Base, Lourdes, Colon",
    "lat": 13.716667,
    "lon": -89.366667,
    "base": 0,
    "lilypad": 0,
    "fundedsite": 1
  },
  {
    "countryname": "El Salvador",
    "ccode": 92,
    "iso3c": "SLV",
    "basename": "La Union",
    "lat": 13.336944,
    "lon": -87.843889,
    "base": 0,
    "lilypad": 0,
    "fundedsite": 1
  },
  {
    "countryname": "El Salvador",
    "ccode": 92,
    "iso3c": "SLV",
    "basename": "Cuscatlan",
    "lat": 13.673056,
    "lon": -89.240556,
    "base": 0,
    "lilypad": 0,
    "fundedsite": 1
  },
  {
    "countryname": "Ethiopia",
    "ccode": 530,
    "iso3c": "ETH",
    "basename": "Camp Gilbert, Dire Dawa",
    "lat": 9.6,
    "lon": 41.866667,
    "base": 0,
    "lilypad": 1,
    "fundedsite": 0
  },
  {
    "countryname": "Gabon",
    "ccode": 481,
    "iso3c": "GAB",
    "basename": "Port Gentil",
    "lat": -0.714328,
    "lon": 8.786359,
    "base": 0,
    "lilypad": 1,
    "fundedsite": 0
  },
  {
    "countryname": "Georigia",
    "ccode": 372,
    "iso3c": "GEO",
    "basename": "Krtsanisi Training Centre, nr. Tblisi",
    "lat": 41.5824,
    "lon": 44.9129,
    "base": 0,
    "lilypad": 1,
    "fundedsite": 0
  },
  {
    "countryname": "Germany",
    "ccode": 255,
    "iso3c": "DEU",
    "basename": "Amberg",
    "lat": 49.44032,
    "lon": 11.863345,
    "base": 1,
    "lilypad": 0,
    "fundedsite": 0
  },
  {
    "countryname": "Germany",
    "ccode": 255,
    "iso3c": "DEU",
    "basename": "USAG Ansbach",
    "lat": 49.300425,
    "lon": 10.571936,
    "base": 1,
    "lilypad": 0,
    "fundedsite": 0
  },
  {
    "countryname": "Germany",
    "ccode": 255,
    "iso3c": "DEU",
    "basename": "Bann",
    "lat": 50.73743,
    "lon": 7.098207,
    "base": 1,
    "lilypad": 0,
    "fundedsite": 0
  },
  {
    "countryname": "Germany",
    "ccode": 255,
    "iso3c": "DEU",
    "basename": "USAG Rheinland-Pflaz, Baumholder",
    "lat": 49.613889,
    "lon": 7.333333,
    "base": 1,
    "lilypad": 0,
    "fundedsite": 0
  },
  {
    "countryname": "Germany",
    "ccode": 255,
    "iso3c": "DEU",
    "basename": "Panzer Kaserne US AB, Boeblingen",
    "lat": 48.681331,
    "lon": 9.00883,
    "base": 1,
    "lilypad": 0,
    "fundedsite": 0
  },
  {
    "countryname": "Germany",
    "ccode": 255,
    "iso3c": "DEU",
    "basename": "Buechel Air Base",
    "lat": 50.172908,
    "lon": 7.083462,
    "base": 1,
    "lilypad": 0,
    "fundedsite": 0
  },
  {
    "countryname": "Germany",
    "ccode": 255,
    "iso3c": "DEU",
    "basename": "Darmstadt",
    "lat": 49.877648,
    "lon": 8.651762,
    "base": 1,
    "lilypad": 0,
    "fundedsite": 0
  },
  {
    "countryname": "Germany",
    "ccode": 255,
    "iso3c": "DEU",
    "basename": "Dexheim US Army Base",
    "lat": 49.845929,
    "lon": 8.316098,
    "base": 1,
    "lilypad": 0,
    "fundedsite": 0
  },
  {
    "countryname": "Germany",
    "ccode": 255,
    "iso3c": "DEU",
    "basename": "USAFE Warrior Preparation Center, Einsiedlerhof",
    "lat": 49.441063,
    "lon": 7.665646,
    "base": 1,
    "lilypad": 0,
    "fundedsite": 0
  },
  {
    "countryname": "Germany",
    "ccode": 255,
    "iso3c": "DEU",
    "basename": "USAG Bavaria, Garmisch",
    "lat": 47.491695,
    "lon": 11.095498,
    "base": 1,
    "lilypad": 0,
    "fundedsite": 0
  },
  {
    "countryname": "Germany",
    "ccode": 255,
    "iso3c": "DEU",
    "basename": "NATO Base Geilenkirchen",
    "lat": 50.967168,
    "lon": 6.117458,
    "base": 1,
    "lilypad": 0,
    "fundedsite": 0
  },
  {
    "countryname": "Germany",
    "ccode": 255,
    "iso3c": "DEU",
    "basename": "US Army Depot Germersheim",
    "lat": 49.214024,
    "lon": 8.366815,
    "base": 1,
    "lilypad": 0,
    "fundedsite": 0
  },
  {
    "countryname": "Germany",
    "ccode": 255,
    "iso3c": "DEU",
    "basename": "Giessen Army Depot",
    "lat": 50.587142,
    "lon": 8.690926,
    "base": 1,
    "lilypad": 0,
    "fundedsite": 0
  },
  {
    "countryname": "Germany",
    "ccode": 255,
    "iso3c": "DEU",
    "basename": "USAG Grafenwohr",
    "lat": 49.714147,
    "lon": 11.905874,
    "base": 1,
    "lilypad": 0,
    "fundedsite": 0
  },
  {
    "countryname": "Germany",
    "ccode": 255,
    "iso3c": "DEU",
    "basename": "US Army Depot Gruenstadt",
    "lat": 49.563302,
    "lon": 8.168394,
    "base": 1,
    "lilypad": 0,
    "fundedsite": 0
  },
  {
    "countryname": "Germany",
    "ccode": 255,
    "iso3c": "DEU",
    "basename": "USAG Heidelberg",
    "lat": 49.398752,
    "lon": 8.672434,
    "base": 1,
    "lilypad": 0,
    "fundedsite": 0
  },
  {
    "countryname": "Germany",
    "ccode": 255,
    "iso3c": "DEU",
    "basename": "Hof Germany",
    "lat": 50.313539,
    "lon": 11.912781,
    "base": 1,
    "lilypad": 0,
    "fundedsite": 0
  },
  {
    "countryname": "Germany",
    "ccode": 255,
    "iso3c": "DEU",
    "basename": "USAG Hohenfels",
    "lat": 49.203278,
    "lon": 11.849022,
    "base": 1,
    "lilypad": 0,
    "fundedsite": 0
  },
  {
    "countryname": "Germany",
    "ccode": 255,
    "iso3c": "DEU",
    "basename": "Illesheim, Storck Barrakcs",
    "lat": 49.475337,
    "lon": 10.384905,
    "base": 1,
    "lilypad": 0,
    "fundedsite": 0
  },
  {
    "countryname": "Germany",
    "ccode": 255,
    "iso3c": "DEU",
    "basename": "USAG Kaiserlautern",
    "lat": 49.440066,
    "lon": 7.749126,
    "base": 1,
    "lilypad": 0,
    "fundedsite": 0
  },
  {
    "countryname": "Germany",
    "ccode": 255,
    "iso3c": "DEU",
    "basename": "Kornwestheim Barracks",
    "lat": 48.862609,
    "lon": 9.180971,
    "base": 1,
    "lilypad": 0,
    "fundedsite": 0
  },
  {
    "countryname": "Germany",
    "ccode": 255,
    "iso3c": "DEU",
    "basename": "Lampertheim Training Area",
    "lat": 49.599727,
    "lon": 8.466599,
    "base": 1,
    "lilypad": 0,
    "fundedsite": 0
  },
  {
    "countryname": "Germany",
    "ccode": 255,
    "iso3c": "DEU",
    "basename": "Landshut, Seingberg Range",
    "lat": 48.539225,
    "lon": 12.145922,
    "base": 1,
    "lilypad": 0,
    "fundedsite": 0
  },
  {
    "countryname": "Germany",
    "ccode": 255,
    "iso3c": "DEU",
    "basename": "Landstuhl Regional Medical Center",
    "lat": 49.412222,
    "lon": 7.572222,
    "base": 1,
    "lilypad": 0,
    "fundedsite": 0
  },
  {
    "countryname": "Germany",
    "ccode": 255,
    "iso3c": "DEU",
    "basename": "Egelsbach Transmitter Facility, Langen",
    "lat": 49.991466,
    "lon": 8.663401,
    "base": 1,
    "lilypad": 0,
    "fundedsite": 0
  },
  {
    "countryname": "Germany",
    "ccode": 255,
    "iso3c": "DEU",
    "basename": "Mainz Kastel Army Base",
    "lat": 49.992862,
    "lon": 8.247253,
    "base": 1,
    "lilypad": 0,
    "fundedsite": 0
  },
  {
    "countryname": "Germany",
    "ccode": 255,
    "iso3c": "DEU",
    "basename": "Mannheim Germany",
    "lat": 49.487459,
    "lon": 8.466039,
    "base": 0,
    "lilypad": 1,
    "fundedsite": 0
  },
  {
    "countryname": "Germany",
    "ccode": 255,
    "iso3c": "DEU",
    "basename": "Miesau Army Depot",
    "lat": 49.404947,
    "lon": 7.436811,
    "base": 1,
    "lilypad": 0,
    "fundedsite": 0
  },
  {
    "countryname": "Germany",
    "ccode": 255,
    "iso3c": "DEU",
    "basename": "Nahbollenbach Army Depot",
    "lat": 49.717,
    "lon": 7.367,
    "base": 1,
    "lilypad": 0,
    "fundedsite": 0
  },
  {
    "countryname": "Germany",
    "ccode": 255,
    "iso3c": "DEU",
    "basename": "Pfeffelbach",
    "lat": 49.539236,
    "lon": 7.327302,
    "base": 1,
    "lilypad": 0,
    "fundedsite": 0
  },
  {
    "countryname": "Germany",
    "ccode": 255,
    "iso3c": "DEU",
    "basename": "Pirmasens Army Depot",
    "lat": 49.201555,
    "lon": 7.600216,
    "base": 1,
    "lilypad": 0,
    "fundedsite": 0
  },
  {
    "countryname": "Germany",
    "ccode": 255,
    "iso3c": "DEU",
    "basename": "Ramstein AFB",
    "lat": 49.44,
    "lon": 7.5971,
    "base": 1,
    "lilypad": 0,
    "fundedsite": 0
  },
  {
    "countryname": "Germany",
    "ccode": 255,
    "iso3c": "DEU",
    "basename": "Schweinfurt",
    "lat": 50.049205,
    "lon": 10.219423,
    "base": 1,
    "lilypad": 0,
    "fundedsite": 0
  },
  {
    "countryname": "Germany",
    "ccode": 255,
    "iso3c": "DEU",
    "basename": "Schwetzingen",
    "lat": 49.385219,
    "lon": 8.572245,
    "base": 1,
    "lilypad": 0,
    "fundedsite": 0
  },
  {
    "countryname": "Germany",
    "ccode": 255,
    "iso3c": "DEU",
    "basename": "Seckenheim",
    "lat": 49.463903,
    "lon": 8.5592,
    "base": 1,
    "lilypad": 0,
    "fundedsite": 0
  },
  {
    "countryname": "Germany",
    "ccode": 255,
    "iso3c": "DEU",
    "basename": "Sembach AB",
    "lat": 49.511398,
    "lon": 7.864983,
    "base": 1,
    "lilypad": 0,
    "fundedsite": 0
  },
  {
    "countryname": "Germany",
    "ccode": 255,
    "iso3c": "DEU",
    "basename": "Spangdahlem AB",
    "lat": 49.985679,
    "lon": 6.684338,
    "base": 1,
    "lilypad": 0,
    "fundedsite": 0
  },
  {
    "countryname": "Germany",
    "ccode": 255,
    "iso3c": "DEU",
    "basename": "USAG Stuttgart",
    "lat": 48.775418,
    "lon": 9.181759,
    "base": 1,
    "lilypad": 0,
    "fundedsite": 0
  },
  {
    "countryname": "Germany",
    "ccode": 255,
    "iso3c": "DEU",
    "basename": "Trier",
    "lat": 49.746883,
    "lon": 6.634751,
    "base": 1,
    "lilypad": 0,
    "fundedsite": 0
  },
  {
    "countryname": "Germany",
    "ccode": 255,
    "iso3c": "DEU",
    "basename": "Vilseck, Rose Barracks",
    "lat": 49.610007,
    "lon": 11.806215,
    "base": 1,
    "lilypad": 0,
    "fundedsite": 0
  },
  {
    "countryname": "Germany",
    "ccode": 255,
    "iso3c": "DEU",
    "basename": "US Army Base Wackernheim",
    "lat": 49.973643,
    "lon": 8.118423,
    "base": 1,
    "lilypad": 0,
    "fundedsite": 0
  },
  {
    "countryname": "Germany",
    "ccode": 255,
    "iso3c": "DEU",
    "basename": "Weilerbach",
    "lat": 49.481389,
    "lon": 7.632222,
    "base": 0,
    "lilypad": 1,
    "fundedsite": 0
  },
  {
    "countryname": "Germany",
    "ccode": 255,
    "iso3c": "DEU",
    "basename": "Weisskirchen",
    "lat": 49.555611,
    "lon": 6.818959,
    "base": 0,
    "lilypad": 1,
    "fundedsite": 0
  },
  {
    "countryname": "Germany",
    "ccode": 255,
    "iso3c": "DEU",
    "basename": "USAG Wiesbaden",
    "lat": 50.06308,
    "lon": 8.243344,
    "base": 0,
    "lilypad": 1,
    "fundedsite": 0
  },
  {
    "countryname": "Ghana",
    "ccode": 452,
    "iso3c": "GHA",
    "basename": "Takoradi/Sekondi",
    "lat": 4.90297,
    "lon": -1.768277,
    "base": 0,
    "lilypad": 1,
    "fundedsite": 0
  },
  {
    "countryname": "Greece",
    "ccode": 350,
    "iso3c": "GRC",
    "basename": "US NSA Soudha Bay",
    "lat": 35.537632,
    "lon": 24.153585,
    "base": 1,
    "lilypad": 0,
    "fundedsite": 0
  },
  {
    "countryname": "Greece",
    "ccode": 350,
    "iso3c": "GRC",
    "basename": "Marathi Pier Area, Chania",
    "lat": 35.503625,
    "lon": 24.173608,
    "base": 0,
    "lilypad": 1,
    "fundedsite": 0
  },
  {
    "countryname": "Greenland",
    "ccode": 390,
    "iso3c": "DNK",
    "basename": "Thule Air Base",
    "lat": 77.48262,
    "lon": -69.345131,
    "base": 1,
    "lilypad": 0,
    "fundedsite": 0
  },
  {
    "countryname": "Guam",
    "ccode": 2,
    "iso3c": "USA",
    "basename": "Anderson AFB",
    "lat": 13.5761,
    "lon": 144.9244,
    "base": 1,
    "lilypad": 0,
    "fundedsite": 0
  },
  {
    "countryname": "Guam",
    "ccode": 2,
    "iso3c": "USA",
    "basename": "Apra Harbor NS",
    "lat": 13.4497222,
    "lon": 144.65,
    "base": 1,
    "lilypad": 0,
    "fundedsite": 0
  },
  {
    "countryname": "Guam",
    "ccode": 2,
    "iso3c": "USA",
    "basename": "Andy South",
    "lat": 13.448889,
    "lon": 144.800278,
    "base": 1,
    "lilypad": 0,
    "fundedsite": 0
  },
  {
    "countryname": "Guatemala",
    "ccode": 90,
    "iso3c": "GTM",
    "basename": "Puerto San Jose",
    "lat": 13.920235,
    "lon": -90.810797,
    "base": 0,
    "lilypad": 0,
    "fundedsite": 1
  },
  {
    "countryname": "Guatemala",
    "ccode": 90,
    "iso3c": "GTM",
    "basename": "Poptun",
    "lat": 16.327633,
    "lon": -89.408154,
    "base": 0,
    "lilypad": 0,
    "fundedsite": 1
  },
  {
    "countryname": "Guatemala",
    "ccode": 90,
    "iso3c": "GTM",
    "basename": "Champerico",
    "lat": 14.293932,
    "lon": -91.913381,
    "base": 0,
    "lilypad": 0,
    "fundedsite": 1
  },
  {
    "countryname": "Guatemala",
    "ccode": 90,
    "iso3c": "GTM",
    "basename": "Coban",
    "lat": 15.47134,
    "lon": -90.404305,
    "base": 0,
    "lilypad": 0,
    "fundedsite": 1
  },
  {
    "countryname": "Guatemala",
    "ccode": 90,
    "iso3c": "GTM",
    "basename": "Santa Ana de Berlin",
    "lat": 14.7,
    "lon": -91.8833,
    "base": 0,
    "lilypad": 0,
    "fundedsite": 1
  },
  {
    "countryname": "Guatemala",
    "ccode": 90,
    "iso3c": "GTM",
    "basename": "Tecun Uman",
    "lat": 14.673286,
    "lon": -92.132206,
    "base": 0,
    "lilypad": 0,
    "fundedsite": 1
  },
  {
    "countryname": "Guatemala",
    "ccode": 90,
    "iso3c": "GTM",
    "basename": "Puerto Barrios",
    "lat": 15.719062,
    "lon": -88.601189,
    "base": 0,
    "lilypad": 0,
    "fundedsite": 1
  },
  {
    "countryname": "Honduras",
    "ccode": 91,
    "iso3c": "HND",
    "basename": "US Southern Command Joint Force Bravo Soto Cano, Palmerola Honduran AFB",
    "lat": 14.381902,
    "lon": -87.616722,
    "base": 1,
    "lilypad": 0,
    "fundedsite": 0
  },
  {
    "countryname": "Honduras",
    "ccode": 91,
    "iso3c": "HND",
    "basename": "Mocoron Tropics Region Testing Center",
    "lat": 15.039154,
    "lon": -84.275469,
    "base": 0,
    "lilypad": 1,
    "fundedsite": 0
  },
  {
    "countryname": "Honduras",
    "ccode": 91,
    "iso3c": "HND",
    "basename": "Mocoron",
    "lat": 15.038947,
    "lon": -84.277315,
    "base": 0,
    "lilypad": 0,
    "fundedsite": 1
  },
  {
    "countryname": "Honduras",
    "ccode": 91,
    "iso3c": "HND",
    "basename": "Guanaja",
    "lat": 16.443976,
    "lon": -85.902367,
    "base": 0,
    "lilypad": 0,
    "fundedsite": 1
  },
  {
    "countryname": "Honduras",
    "ccode": 91,
    "iso3c": "HND",
    "basename": "Puerto Castilla",
    "lat": 16.010554,
    "lon": -85.95134,
    "base": 0,
    "lilypad": 0,
    "fundedsite": 1
  },
  {
    "countryname": "Honduras",
    "ccode": 91,
    "iso3c": "HND",
    "basename": "La Venta",
    "lat": 13.795229,
    "lon": -87.28952,
    "base": 0,
    "lilypad": 0,
    "fundedsite": 1
  },
  {
    "countryname": "Honduras",
    "ccode": 91,
    "iso3c": "HND",
    "basename": "El Aguacate",
    "lat": 13.950329,
    "lon": -87.132217,
    "base": 0,
    "lilypad": 0,
    "fundedsite": 1
  },
  {
    "countryname": "Honduras",
    "ccode": 91,
    "iso3c": "HND",
    "basename": "Puerto Lempira",
    "lat": 15.267511,
    "lon": -83.771347,
    "base": 0,
    "lilypad": 0,
    "fundedsite": 1
  },
  {
    "countryname": "Honduras",
    "ccode": 91,
    "iso3c": "HND",
    "basename": "La Brea",
    "lat": 15.793265,
    "lon": -85.964799,
    "base": 0,
    "lilypad": 0,
    "fundedsite": 1
  },
  {
    "countryname": "Hong Kong",
    "ccode": 710,
    "iso3c": "CHN",
    "basename": "Chek Lap Kok Airport",
    "lat": 22.298513,
    "lon": 113.932679,
    "base": 0,
    "lilypad": 1,
    "fundedsite": 0
  },
  {
    "countryname": "Hungary",
    "ccode": 310,
    "iso3c": "HUN",
    "basename": "Papa AB, Papa",
    "lat": 47.362976,
    "lon": 17.501107,
    "base": 0,
    "lilypad": 1,
    "fundedsite": 0
  },
  {
    "countryname": "Iceland",
    "ccode": 395,
    "iso3c": "ISL",
    "basename": "Grindavik Naval Transmission Facility",
    "lat": 63.846191,
    "lon": -22.44479,
    "base": 1,
    "lilypad": 0,
    "fundedsite": 0
  },
  {
    "countryname": "Iceland",
    "ccode": 395,
    "iso3c": "ISL",
    "basename": "Keflavik Naval Air Station",
    "lat": 63.9843294,
    "lon": -22.60333092,
    "base": 0,
    "lilypad": 1,
    "fundedsite": 0
  },
  {
    "countryname": "Iraq",
    "ccode": 645,
    "iso3c": "IRQ",
    "basename": "Green Zone, Baghdad",
    "lat": 33.307577,
    "lon": 44.390259,
    "base": 1,
    "lilypad": 0,
    "fundedsite": 0
  },
  {
    "countryname": "Iraq",
    "ccode": 645,
    "iso3c": "IRQ",
    "basename": "Camp Taji (a.k.a. Camp Cooke)",
    "lat": 33.529444,
    "lon": 44.2775,
    "base": 1,
    "lilypad": 0,
    "fundedsite": 0
  },
  {
    "countryname": "Iraq",
    "ccode": 645,
    "iso3c": "IRQ",
    "basename": "Al Asad AB",
    "lat": 33.789367,
    "lon": 42.444692,
    "base": 0,
    "lilypad": 1,
    "fundedsite": 0
  },
  {
    "countryname": "Iraq",
    "ccode": 645,
    "iso3c": "IRQ",
    "basename": "Al Taqaddum",
    "lat": 33.33911,
    "lon": 43.598341,
    "base": 0,
    "lilypad": 1,
    "fundedsite": 0
  },
  {
    "countryname": "Ireland",
    "ccode": 205,
    "iso3c": "IRL",
    "basename": "Shannon Airport",
    "lat": 52.701944,
    "lon": -8.924722,
    "base": 0,
    "lilypad": 1,
    "fundedsite": 0
  },
  {
    "countryname": "Israel",
    "ccode": 666,
    "iso3c": "ISR",
    "basename": "Dimona Radar Base",
    "lat": 30.967591,
    "lon": 35.097121,
    "base": 0,
    "lilypad": 1,
    "fundedsite": 0
  },
  {
    "countryname": "Israel",
    "ccode": 666,
    "iso3c": "ISR",
    "basename": "Sdot Micha (aka Tal Shahar), Beit Shemesh",
    "lat": 31.738611,
    "lon": 34.919444,
    "base": 0,
    "lilypad": 1,
    "fundedsite": 0
  },
  {
    "countryname": "Israel",
    "ccode": 666,
    "iso3c": "ISR",
    "basename": "Haifa (port facils for 6th fleet)",
    "lat": 32.816667,
    "lon": 34.983333,
    "base": 0,
    "lilypad": 1,
    "fundedsite": 0
  },
  {
    "countryname": "Israel",
    "ccode": 666,
    "iso3c": "ISR",
    "basename": "Site 51 [loc. Is random in Negev]",
    "lat": 30.77243,
    "lon": 34.977783,
    "base": 0,
    "lilypad": 1,
    "fundedsite": 0
  },
  {
    "countryname": "Israel",
    "ccode": 666,
    "iso3c": "ISR",
    "basename": "Site 53 [loc. Is random in Negev]",
    "lat": 30.77896,
    "lon": 35.129283,
    "base": 0,
    "lilypad": 1,
    "fundedsite": 0
  },
  {
    "countryname": "Israel",
    "ccode": 666,
    "iso3c": "ISR",
    "basename": "Site 54",
    "lat": "NA",
    "lon": "NA",
    "base": 0,
    "lilypad": 1,
    "fundedsite": 0
  },
  {
    "countryname": "Italy",
    "ccode": 325,
    "iso3c": "ITA",
    "basename": "Augusta Bay, Catania",
    "lat": 37.508039,
    "lon": 15.082851,
    "base": 1,
    "lilypad": 0,
    "fundedsite": 0
  },
  {
    "countryname": "Italy",
    "ccode": 325,
    "iso3c": "ITA",
    "basename": "Aviano AB",
    "lat": 46.069863,
    "lon": 12.598471,
    "base": 1,
    "lilypad": 0,
    "fundedsite": 0
  },
  {
    "countryname": "Italy",
    "ccode": 325,
    "iso3c": "ITA",
    "basename": "Camp Darby, Tirrenia/Livorno",
    "lat": 43.634506,
    "lon": 10.291604,
    "base": 1,
    "lilypad": 0,
    "fundedsite": 0
  },
  {
    "countryname": "Italy",
    "ccode": 325,
    "iso3c": "ITA",
    "basename": "Camp Ederle, Vicenza",
    "lat": 45.545479,
    "lon": 11.535421,
    "base": 1,
    "lilypad": 0,
    "fundedsite": 0
  },
  {
    "countryname": "Italy",
    "ccode": 325,
    "iso3c": "ITA",
    "basename": "Naval Support Activity Naples",
    "lat": 40.851775,
    "lon": 14.268124,
    "base": 1,
    "lilypad": 0,
    "fundedsite": 0
  },
  {
    "countryname": "Italy",
    "ccode": 325,
    "iso3c": "ITA",
    "basename": "Naval Support Activity Gaeta",
    "lat": 41.244724,
    "lon": 13.55526,
    "base": 1,
    "lilypad": 0,
    "fundedsite": 0
  },
  {
    "countryname": "Italy",
    "ccode": 325,
    "iso3c": "ITA",
    "basename": "Brescia Radio Relay Site",
    "lat": 45.541188,
    "lon": 10.219444,
    "base": 0,
    "lilypad": 1,
    "fundedsite": 0
  },
  {
    "countryname": "Italy",
    "ccode": 325,
    "iso3c": "ITA",
    "basename": "Naval Support Activity Naples",
    "lat": 40.851775,
    "lon": 14.268124,
    "base": 1,
    "lilypad": 0,
    "fundedsite": 0
  },
  {
    "countryname": "Italy",
    "ccode": 325,
    "iso3c": "ITA",
    "basename": "Caserma Del Din, Vicenza",
    "lat": 45.545479,
    "lon": 11.535421,
    "base": 1,
    "lilypad": 0,
    "fundedsite": 0
  },
  {
    "countryname": "Italy",
    "ccode": 325,
    "iso3c": "ITA",
    "basename": "Dandolo MOUT facility, Maniago",
    "lat": 46.165086,
    "lon": 12.706567,
    "base": 1,
    "lilypad": 0,
    "fundedsite": 0
  },
  {
    "countryname": "Italy",
    "ccode": 325,
    "iso3c": "ITA",
    "basename": "NAS 1 Support Area Catania",
    "lat": 37.508039,
    "lon": 15.082851,
    "base": 1,
    "lilypad": 0,
    "fundedsite": 0
  },
  {
    "countryname": "Italy",
    "ccode": 325,
    "iso3c": "ITA",
    "basename": "NAS Sigonella",
    "lat": 37.401667,
    "lon": 14.922222,
    "base": 1,
    "lilypad": 0,
    "fundedsite": 0
  },
  {
    "countryname": "Italy",
    "ccode": 325,
    "iso3c": "ITA",
    "basename": "Pisa Ammo Storage Area (Camp Darby)",
    "lat": 43.722839,
    "lon": 10.401689,
    "base": 1,
    "lilypad": 0,
    "fundedsite": 0
  },
  {
    "countryname": "Italy",
    "ccode": 325,
    "iso3c": "ITA",
    "basename": "San Vito Normanni",
    "lat": 40.658316,
    "lon": 17.706466,
    "base": 1,
    "lilypad": 0,
    "fundedsite": 0
  },
  {
    "countryname": "Italy",
    "ccode": 325,
    "iso3c": "ITA",
    "basename": "Naval Radio Transmitter Facility, Niscemi",
    "lat": 37.117222,
    "lon": 14.44,
    "base": 1,
    "lilypad": 0,
    "fundedsite": 0
  },
  {
    "countryname": "Japan",
    "ccode": 740,
    "iso3c": "JPN",
    "basename": "Yokota AB, Tokyo",
    "lat": 35.689488,
    "lon": 139.69171,
    "base": 1,
    "lilypad": 0,
    "fundedsite": 0
  },
  {
    "countryname": "Japan",
    "ccode": 740,
    "iso3c": "JPN",
    "basename": "US Fleet Activities, Sasebo",
    "lat": 33.179915,
    "lon": 129.71511,
    "base": 1,
    "lilypad": 0,
    "fundedsite": 0
  },
  {
    "countryname": "Japan",
    "ccode": 740,
    "iso3c": "JPN",
    "basename": "Akizuki Ammunition Depot",
    "lat": 33.469572,
    "lon": 130.69098,
    "base": 1,
    "lilypad": 0,
    "fundedsite": 0
  },
  {
    "countryname": "Japan",
    "ccode": 740,
    "iso3c": "JPN",
    "basename": "Kadena AB, Okinawa",
    "lat": 26.355556,
    "lon": 127.7675,
    "base": 1,
    "lilypad": 0,
    "fundedsite": 0
  },
  {
    "countryname": "Japan",
    "ccode": 740,
    "iso3c": "JPN",
    "basename": "NAF Atsugi",
    "lat": 35.443082,
    "lon": 139.36249,
    "base": 1,
    "lilypad": 0,
    "fundedsite": 0
  },
  {
    "countryname": "Japan",
    "ccode": 740,
    "iso3c": "JPN",
    "basename": "Camo Kinser, Makiminato",
    "lat": 26.265937,
    "lon": 127.72383,
    "base": 1,
    "lilypad": 0,
    "fundedsite": 0
  },
  {
    "countryname": "Japan",
    "ccode": 740,
    "iso3c": "JPN",
    "basename": "CATC Camp Fuji",
    "lat": 35.3556,
    "lon": 138.8597,
    "base": 1,
    "lilypad": 0,
    "fundedsite": 0
  },
  {
    "countryname": "Japan",
    "ccode": 740,
    "iso3c": "JPN",
    "basename": "Camp Gonsalves, Henoko",
    "lat": 26.523196,
    "lon": 128.03242,
    "base": 1,
    "lilypad": 0,
    "fundedsite": 0
  },
  {
    "countryname": "Japan",
    "ccode": 740,
    "iso3c": "JPN",
    "basename": "Camp Kinser, Makiminato",
    "lat": 26.265937,
    "lon": 127.72383,
    "base": 1,
    "lilypad": 0,
    "fundedsite": 0
  },
  {
    "countryname": "Japan",
    "ccode": 740,
    "iso3c": "JPN",
    "basename": "Camp Lester, Chatan",
    "lat": 26.320119,
    "lon": 127.76378,
    "base": 1,
    "lilypad": 0,
    "fundedsite": 0
  },
  {
    "countryname": "Japan",
    "ccode": 740,
    "iso3c": "JPN",
    "basename": "Camp Schwab, Henoko",
    "lat": 26.523196,
    "lon": 128.03242,
    "base": 1,
    "lilypad": 0,
    "fundedsite": 0
  },
  {
    "countryname": "Japan",
    "ccode": 740,
    "iso3c": "JPN",
    "basename": "Chitose Administration Annex",
    "lat": 42.820958,
    "lon": 141.65088,
    "base": 1,
    "lilypad": 0,
    "fundedsite": 0
  },
  {
    "countryname": "Japan",
    "ccode": 740,
    "iso3c": "JPN",
    "basename": "Itazuke Auxiliary Airfield, Fukuoka",
    "lat": 33.590355,
    "lon": 130.40172,
    "base": 1,
    "lilypad": 0,
    "fundedsite": 0
  },
  {
    "countryname": "Japan",
    "ccode": 740,
    "iso3c": "JPN",
    "basename": "Yokota Air Force Base, Fussa",
    "lat": 35.738451,
    "lon": 139.32693,
    "base": 1,
    "lilypad": 0,
    "fundedsite": 0
  },
  {
    "countryname": "Japan",
    "ccode": 740,
    "iso3c": "JPN",
    "basename": "Camp Fuji, Gotemba",
    "lat": 35.308584,
    "lon": 138.93451,
    "base": 1,
    "lilypad": 0,
    "fundedsite": 0
  },
  {
    "countryname": "Japan",
    "ccode": 740,
    "iso3c": "JPN",
    "basename": "POL dept, Hachinohe",
    "lat": 40.512284,
    "lon": 141.4884,
    "base": 1,
    "lilypad": 0,
    "fundedsite": 0
  },
  {
    "countryname": "Japan",
    "ccode": 740,
    "iso3c": "JPN",
    "basename": "Higashi-Hiroshima",
    "lat": 34.39548,
    "lon": 132.48243,
    "base": 1,
    "lilypad": 0,
    "fundedsite": 0
  },
  {
    "countryname": "Japan",
    "ccode": 740,
    "iso3c": "JPN",
    "basename": "Housing area, Ikego",
    "lat": 35.303808,
    "lon": 139.59786,
    "base": 1,
    "lilypad": 0,
    "fundedsite": 0
  },
  {
    "countryname": "Japan",
    "ccode": 740,
    "iso3c": "JPN",
    "basename": "MCAS Iwakuni",
    "lat": 34.166562,
    "lon": 132.21885,
    "base": 1,
    "lilypad": 0,
    "fundedsite": 0
  },
  {
    "countryname": "Japan",
    "ccode": 740,
    "iso3c": "JPN",
    "basename": "Iwo Jima",
    "lat": 24.774024,
    "lon": 141.32728,
    "base": 1,
    "lilypad": 0,
    "fundedsite": 0
  },
  {
    "countryname": "Japan",
    "ccode": 740,
    "iso3c": "JPN",
    "basename": "Naval Suuport Facility, Kami Seya",
    "lat": 35.638138,
    "lon": 135.18724,
    "base": 1,
    "lilypad": 0,
    "fundedsite": 0
  },
  {
    "countryname": "Japan",
    "ccode": 740,
    "iso3c": "JPN",
    "basename": "Kisarazu-JGSDF",
    "lat": 35.375974,
    "lon": 139.91683,
    "base": 1,
    "lilypad": 0,
    "fundedsite": 0
  },
  {
    "countryname": "Japan",
    "ccode": 740,
    "iso3c": "JPN",
    "basename": "Koza",
    "lat": 35.374167,
    "lon": 139.39083,
    "base": 1,
    "lilypad": 0,
    "fundedsite": 0
  },
  {
    "countryname": "Japan",
    "ccode": 740,
    "iso3c": "JPN",
    "basename": "Kure",
    "lat": 34.249254,
    "lon": 132.56581,
    "base": 1,
    "lilypad": 0,
    "fundedsite": 0
  },
  {
    "countryname": "Japan",
    "ccode": 740,
    "iso3c": "JPN",
    "basename": "MCAS Futemma",
    "lat": 26.273435,
    "lon": 127.75666,
    "base": 1,
    "lilypad": 0,
    "fundedsite": 0
  },
  {
    "countryname": "Japan",
    "ccode": 740,
    "iso3c": "JPN",
    "basename": "Misawa AFB",
    "lat": 40.683134,
    "lon": 141.36898,
    "base": 1,
    "lilypad": 0,
    "fundedsite": 0
  },
  {
    "countryname": "Japan",
    "ccode": 740,
    "iso3c": "JPN",
    "basename": "Naha Port",
    "lat": 26.22853,
    "lon": 127.68911,
    "base": 1,
    "lilypad": 0,
    "fundedsite": 0
  },
  {
    "countryname": "Japan",
    "ccode": 740,
    "iso3c": "JPN",
    "basename": "Okuma",
    "lat": 26.25578,
    "lon": 127.78181,
    "base": 1,
    "lilypad": 0,
    "fundedsite": 0
  },
  {
    "countryname": "Japan",
    "ccode": 740,
    "iso3c": "JPN",
    "basename": "Camp Hansen, Onna",
    "lat": 26.4975,
    "lon": 127.85356,
    "base": 1,
    "lilypad": 0,
    "fundedsite": 0
  },
  {
    "countryname": "Japan",
    "ccode": 740,
    "iso3c": "JPN",
    "basename": "Communications Station, Owada",
    "lat": 35.815464,
    "lon": 139.55704,
    "base": 1,
    "lilypad": 0,
    "fundedsite": 0
  },
  {
    "countryname": "Japan",
    "ccode": 740,
    "iso3c": "JPN",
    "basename": "Camp Zama, Sagamihara",
    "lat": 35.571462,
    "lon": 139.37318,
    "base": 1,
    "lilypad": 0,
    "fundedsite": 0
  },
  {
    "countryname": "Japan",
    "ccode": 740,
    "iso3c": "JPN",
    "basename": "Sobe Communications Site, Okinawa",
    "lat": 26.38739,
    "lon": 127.73654,
    "base": 1,
    "lilypad": 0,
    "fundedsite": 0
  },
  {
    "countryname": "Japan",
    "ccode": 740,
    "iso3c": "JPN",
    "basename": "Tana",
    "lat": 35.558519,
    "lon": 139.33794,
    "base": 1,
    "lilypad": 0,
    "fundedsite": 0
  },
  {
    "countryname": "Japan",
    "ccode": 740,
    "iso3c": "JPN",
    "basename": "Camp Courtney, Tengan",
    "lat": 26.388406,
    "lon": 127.85693,
    "base": 1,
    "lilypad": 0,
    "fundedsite": 0
  },
  {
    "countryname": "Japan",
    "ccode": 740,
    "iso3c": "JPN",
    "basename": "Camp McTureous, Tengan",
    "lat": 26.388406,
    "lon": 127.85693,
    "base": 1,
    "lilypad": 0,
    "fundedsite": 0
  },
  {
    "countryname": "Japan",
    "ccode": 740,
    "iso3c": "JPN",
    "basename": "Tokorozawa Transmitter Sit , Tokorosana",
    "lat": 35.799672,
    "lon": 139.46861,
    "base": 1,
    "lilypad": 0,
    "fundedsite": 0
  },
  {
    "countryname": "Japan",
    "ccode": 740,
    "iso3c": "JPN",
    "basename": "Totsuka",
    "lat": 36.893331,
    "lon": 140.41802,
    "base": 1,
    "lilypad": 0,
    "fundedsite": 0
  },
  {
    "countryname": "Japan",
    "ccode": 740,
    "iso3c": "JPN",
    "basename": "Waco City",
    "lat": 35.781208,
    "lon": 139.60579,
    "base": 1,
    "lilypad": 0,
    "fundedsite": 0
  },
  {
    "countryname": "Japan",
    "ccode": 740,
    "iso3c": "JPN",
    "basename": "Yokohama",
    "lat": 35.443708,
    "lon": 139.63803,
    "base": 1,
    "lilypad": 0,
    "fundedsite": 0
  },
  {
    "countryname": "Japan",
    "ccode": 740,
    "iso3c": "JPN",
    "basename": "COMFLEACT Yokosuka",
    "lat": 35.281341,
    "lon": 139.6722,
    "base": 1,
    "lilypad": 0,
    "fundedsite": 0
  },
  {
    "countryname": "Japan",
    "ccode": 740,
    "iso3c": "JPN",
    "basename": "Camp Zama, Zama",
    "lat": 35.488587,
    "lon": 139.40767,
    "base": 1,
    "lilypad": 0,
    "fundedsite": 0
  },
  {
    "countryname": "Japan",
    "ccode": 740,
    "iso3c": "JPN",
    "basename": "Camp Foster, Zukeran",
    "lat": 26.30762,
    "lon": 127.77849,
    "base": 1,
    "lilypad": 0,
    "fundedsite": 0
  },
  {
    "countryname": "Johnston Atoll",
    "ccode": 2,
    "iso3c": "USA",
    "basename": "Johnston Atoll Airfield",
    "lat": 16.734591,
    "lon": -169.526091,
    "base": 1,
    "lilypad": 0,
    "fundedsite": 0
  },
  {
    "countryname": "Jordan",
    "ccode": 663,
    "iso3c": "JOR",
    "basename": "Muwaffaq Salti Air Base, Azraq",
    "lat": 31.834167,
    "lon": 36.787222,
    "base": 0,
    "lilypad": 1,
    "fundedsite": 0
  },
  {
    "countryname": "Jordan",
    "ccode": 663,
    "iso3c": "JOR",
    "basename": "King Abdullah Sp Ops Trng Ctr Amman",
    "lat": 32.032,
    "lon": 35.975,
    "base": 0,
    "lilypad": 0,
    "fundedsite": 1
  },
  {
    "countryname": "Kenya",
    "ccode": 501,
    "iso3c": "KEN",
    "basename": "Garissa",
    "lat": -0.456944,
    "lon": 39.658333,
    "base": 0,
    "lilypad": 1,
    "fundedsite": 0
  },
  {
    "countryname": "Kenya",
    "ccode": 501,
    "iso3c": "KEN",
    "basename": "Manda Bay, Lamu",
    "lat": -2.280262,
    "lon": 40.891285,
    "base": 0,
    "lilypad": 1,
    "fundedsite": 0
  },
  {
    "countryname": "Kenya",
    "ccode": 501,
    "iso3c": "KEN",
    "basename": "Mombasa\tKenya",
    "lat": -4.043477,
    "lon": 39.668207,
    "base": 1,
    "lilypad": 0,
    "fundedsite": 0
  },
  {
    "countryname": "Korea, South",
    "ccode": 732,
    "iso3c": "KOR",
    "basename": "Camp Humphreys (High Point), Chechon",
    "lat": 36.963982,
    "lon": 127.039003,
    "base": 1,
    "lilypad": 0,
    "fundedsite": 0
  },
  {
    "countryname": "Korea, South",
    "ccode": 732,
    "iso3c": "KOR",
    "basename": "Chinhae Fleet Activities",
    "lat": 35.133025,
    "lon": 128.71004,
    "base": 1,
    "lilypad": 0,
    "fundedsite": 0
  },
  {
    "countryname": "Korea, South",
    "ccode": 732,
    "iso3c": "KOR",
    "basename": "Camp Market, Inchon",
    "lat": 37.456256,
    "lon": 126.70521,
    "base": 1,
    "lilypad": 0,
    "fundedsite": 0
  },
  {
    "countryname": "Korea, South",
    "ccode": 732,
    "iso3c": "KOR",
    "basename": "Kimhae Storage Annex",
    "lat": 35.228545,
    "lon": 128.88935,
    "base": 1,
    "lilypad": 0,
    "fundedsite": 0
  },
  {
    "countryname": "Korea, South",
    "ccode": 732,
    "iso3c": "KOR",
    "basename": "Kunsan AB",
    "lat": 35.967677,
    "lon": 126.73663,
    "base": 1,
    "lilypad": 0,
    "fundedsite": 0
  },
  {
    "countryname": "Korea, South",
    "ccode": 732,
    "iso3c": "KOR",
    "basename": "Kwangju AB",
    "lat": 35.159545,
    "lon": 126.8526,
    "base": 1,
    "lilypad": 0,
    "fundedsite": 0
  },
  {
    "countryname": "Korea, South",
    "ccode": 732,
    "iso3c": "KOR",
    "basename": "Masan Ammunition Depot",
    "lat": 35.213516,
    "lon": 128.58143,
    "base": 1,
    "lilypad": 0,
    "fundedsite": 0
  },
  {
    "countryname": "Korea, South",
    "ccode": 732,
    "iso3c": "KOR",
    "basename": "Osan\tSouth Korea",
    "lat": 37.14981,
    "lon": 127.07722,
    "base": 1,
    "lilypad": 0,
    "fundedsite": 0
  },
  {
    "countryname": "Korea, South",
    "ccode": 732,
    "iso3c": "KOR",
    "basename": "Paju\tSouth Korea",
    "lat": 37.759869,
    "lon": 126.78018,
    "base": 1,
    "lilypad": 0,
    "fundedsite": 0
  },
  {
    "countryname": "Korea, South",
    "ccode": 732,
    "iso3c": "KOR",
    "basename": "Pochon\tSouth Korea",
    "lat": 37.894915,
    "lon": 127.20036,
    "base": 1,
    "lilypad": 0,
    "fundedsite": 0
  },
  {
    "countryname": "Korea, South",
    "ccode": 732,
    "iso3c": "KOR",
    "basename": "Munsan\tSouth Korea",
    "lat": 37.889992,
    "lon": 126.6987,
    "base": 1,
    "lilypad": 0,
    "fundedsite": 0
  },
  {
    "countryname": "Korea, South",
    "ccode": 732,
    "iso3c": "KOR",
    "basename": "Osan AFB",
    "lat": 37.14981,
    "lon": 127.07722,
    "base": 1,
    "lilypad": 0,
    "fundedsite": 0
  },
  {
    "countryname": "Korea, South",
    "ccode": 732,
    "iso3c": "KOR",
    "basename": "Camp Red Cloud (Bullseye 02), Paju",
    "lat": 37.759869,
    "lon": 126.78018,
    "base": 1,
    "lilypad": 0,
    "fundedsite": 0
  },
  {
    "countryname": "Korea, South",
    "ccode": 732,
    "iso3c": "KOR",
    "basename": "Pochon",
    "lat": 37.894915,
    "lon": 127.20036,
    "base": 0,
    "lilypad": 1,
    "fundedsite": 0
  },
  {
    "countryname": "Korea, South",
    "ccode": 732,
    "iso3c": "KOR",
    "basename": "Pohang\t(Camp Mujuk)",
    "lat": 36.019018,
    "lon": 129.34348,
    "base": 1,
    "lilypad": 0,
    "fundedsite": 0
  },
  {
    "countryname": "Korea, South",
    "ccode": 732,
    "iso3c": "KOR",
    "basename": "Pusan",
    "lat": 35.179554,
    "lon": 129.07564,
    "base": 1,
    "lilypad": 0,
    "fundedsite": 0
  },
  {
    "countryname": "Korea, South",
    "ccode": 732,
    "iso3c": "KOR",
    "basename": "Camp Humprehys, Pyeongtaek",
    "lat": 36.992108,
    "lon": 127.11294,
    "base": 1,
    "lilypad": 0,
    "fundedsite": 0
  },
  {
    "countryname": "Korea, South",
    "ccode": 732,
    "iso3c": "KOR",
    "basename": "Tongsan Garrisoin, Seoul",
    "lat": 37.566535,
    "lon": 126.97797,
    "base": 1,
    "lilypad": 0,
    "fundedsite": 0
  },
  {
    "countryname": "Korea, South",
    "ccode": 732,
    "iso3c": "KOR",
    "basename": "K 16 AB, Songnam",
    "lat": 37.444917,
    "lon": 127.13887,
    "base": 1,
    "lilypad": 0,
    "fundedsite": 0
  },
  {
    "countryname": "Korea, South",
    "ccode": 732,
    "iso3c": "KOR",
    "basename": "Suwon AB, Suwon",
    "lat": 37.263573,
    "lon": 127.0286,
    "base": 1,
    "lilypad": 0,
    "fundedsite": 0
  },
  {
    "countryname": "Korea, South",
    "ccode": 732,
    "iso3c": "KOR",
    "basename": "Camp Henry, Camp Walker, Teagu AB",
    "lat": 35.871435,
    "lon": 128.60145,
    "base": 1,
    "lilypad": 0,
    "fundedsite": 0
  },
  {
    "countryname": "Korea, South",
    "ccode": 732,
    "iso3c": "KOR",
    "basename": "Camp Humphreys (Richmond), Taejon",
    "lat": 36.350412,
    "lon": 127.38455,
    "base": 1,
    "lilypad": 0,
    "fundedsite": 0
  },
  {
    "countryname": "Korea, South",
    "ccode": 732,
    "iso3c": "KOR",
    "basename": "Taepeak\tSouth Korea",
    "lat": 37.164065,
    "lon": 128.98557,
    "base": 0,
    "lilypad": 1,
    "fundedsite": 0
  },
  {
    "countryname": "Korea, South",
    "ccode": 732,
    "iso3c": "KOR",
    "basename": "Camp Casey, Camp Castle, Tong Du Chon",
    "lat": 37.7333,
    "lon": 127.05,
    "base": 1,
    "lilypad": 0,
    "fundedsite": 0
  },
  {
    "countryname": "Korea, South",
    "ccode": 732,
    "iso3c": "KOR",
    "basename": "Camp Jackson, Camp Red Cloud, Camp Stanley, Redcloud Communications Center, Uijong Bu",
    "lat": 37.738098,
    "lon": 127.03368,
    "base": 1,
    "lilypad": 0,
    "fundedsite": 0
  },
  {
    "countryname": "Korea, South",
    "ccode": 732,
    "iso3c": "KOR",
    "basename": "Camp Carroll, Waegwan",
    "lat": 35.989043,
    "lon": 128.39771,
    "base": 1,
    "lilypad": 0,
    "fundedsite": 0
  },
  {
    "countryname": "Korea, South",
    "ccode": 732,
    "iso3c": "KOR",
    "basename": "Camp Eagle, Camp Long, Wonju",
    "lat": 37.342219,
    "lon": 127.92016,
    "base": 1,
    "lilypad": 0,
    "fundedsite": 0
  },
  {
    "countryname": "Korea, South",
    "ccode": 732,
    "iso3c": "KOR",
    "basename": "Camp Carroll, Yechon",
    "lat": 36.6577,
    "lon": 128.45288,
    "base": 1,
    "lilypad": 0,
    "fundedsite": 0
  },
  {
    "countryname": "Korea, South",
    "ccode": 732,
    "iso3c": "KOR",
    "basename": "Camp Red Cloud (Bullseye 01), Yongchon\tSouth Korea",
    "lat": 37.538427,
    "lon": 126.96544,
    "base": 1,
    "lilypad": 0,
    "fundedsite": 0
  },
  {
    "countryname": "Korea, South",
    "ccode": 732,
    "iso3c": "KOR",
    "basename": "Camp Kwangsa Ri , Yongju",
    "lat": 37.785288,
    "lon": 127.04584,
    "base": 1,
    "lilypad": 0,
    "fundedsite": 0
  },
  {
    "countryname": "Korea, South",
    "ccode": 732,
    "iso3c": "KOR",
    "basename": "Yongpyong",
    "lat": "NA",
    "lon": "NA",
    "base": 1,
    "lilypad": 0,
    "fundedsite": 0
  },
  {
    "countryname": "Korea, South",
    "ccode": 732,
    "iso3c": "KOR",
    "basename": "Camp Henry (Brooklyn Hill), Yongsan Garrison, Yongsan",
    "lat": 37.538427,
    "lon": 126.96544,
    "base": 1,
    "lilypad": 0,
    "fundedsite": 0
  },
  {
    "countryname": "Kosovo",
    "ccode": 347,
    "iso3c": "KSV",
    "basename": "Camp Bondsteel",
    "lat": 42.366667,
    "lon": 21.25,
    "base": 1,
    "lilypad": 0,
    "fundedsite": 0
  },
  {
    "countryname": "Kuwait",
    "ccode": 690,
    "iso3c": "KWT",
    "basename": "Ali Al Salem AB",
    "lat": 29.31166,
    "lon": 47.481766,
    "base": 1,
    "lilypad": 0,
    "fundedsite": 0
  },
  {
    "countryname": "Kuwait",
    "ccode": 690,
    "iso3c": "KWT",
    "basename": "Camp Buehring",
    "lat": 29.696292,
    "lon": 47.42476,
    "base": 1,
    "lilypad": 0,
    "fundedsite": 0
  },
  {
    "countryname": "Kuwait",
    "ccode": 690,
    "iso3c": "KWT",
    "basename": "Ahmed Al Jaber AB",
    "lat": 28.934917,
    "lon": 47.791972,
    "base": 1,
    "lilypad": 0,
    "fundedsite": 0
  },
  {
    "countryname": "Kuwait",
    "ccode": 690,
    "iso3c": "KWT",
    "basename": "Al Mubarak AB @ Kuwait City IAP",
    "lat": 29.226667,
    "lon": 47.98,
    "base": 1,
    "lilypad": 0,
    "fundedsite": 0
  },
  {
    "countryname": "Kuwait",
    "ccode": 690,
    "iso3c": "KWT",
    "basename": "Camp Patriot/Kuwait Naval Base",
    "lat": 28.8750135,
    "lon": 48.2843467,
    "base": 1,
    "lilypad": 0,
    "fundedsite": 0
  },
  {
    "countryname": "Kuwait",
    "ccode": 690,
    "iso3c": "KWT",
    "basename": "Camp Arifjan, Al Ahmadi",
    "lat": 29.696292,
    "lon": 47.42476,
    "base": 1,
    "lilypad": 0,
    "fundedsite": 0
  },
  {
    "countryname": "Kuwait",
    "ccode": 690,
    "iso3c": "KWT",
    "basename": "Khabari/Kheybari Military Crossing",
    "lat": 30.100432,
    "lon": 47.714498,
    "base": 1,
    "lilypad": 0,
    "fundedsite": 0
  },
  {
    "countryname": "Kuwait",
    "ccode": 690,
    "iso3c": "KWT",
    "basename": "Shuaiba Naval Base",
    "lat": 28.866761,
    "lon": 48.280324,
    "base": 1,
    "lilypad": 0,
    "fundedsite": 0
  },
  {
    "countryname": "Kuwait",
    "ccode": 690,
    "iso3c": "KWT",
    "basename": "Udairi Training Range",
    "lat": 29.696292,
    "lon": 47.42,
    "base": 1,
    "lilypad": 0,
    "fundedsite": 0
  },
  {
    "countryname": "Liberia",
    "ccode": 450,
    "iso3c": "LBR",
    "basename": "Monrovia and surrounding",
    "lat": 6.292412,
    "lon": -10.756391,
    "base": 0,
    "lilypad": 1,
    "fundedsite": 0
  },
  {
    "countryname": "Libya",
    "ccode": 620,
    "iso3c": "LBY",
    "basename": "Al Wigh Airport",
    "lat": 24.183868,
    "lon": 14.543879,
    "base": 0,
    "lilypad": 1,
    "fundedsite": 0
  },
  {
    "countryname": "Marshall Islands",
    "ccode": 983,
    "iso3c": "MHL",
    "basename": "US Army Kwajalein Atoll, R.Reagan Test Site",
    "lat": 8.72037,
    "lon": 167.7334,
    "base": 1,
    "lilypad": 0,
    "fundedsite": 0
  },
  {
    "countryname": "Marshall Islands",
    "ccode": 983,
    "iso3c": "MHL",
    "basename": "Meck Island",
    "lat": 9.002452,
    "lon": 167.726375,
    "base": 1,
    "lilypad": 0,
    "fundedsite": 0
  },
  {
    "countryname": "Marshall Islands",
    "ccode": 983,
    "iso3c": "MHL",
    "basename": "Omeleck Island",
    "lat": 9.047702,
    "lon": 167.742876,
    "base": 1,
    "lilypad": 0,
    "fundedsite": 0
  },
  {
    "countryname": "Marshall Islands",
    "ccode": 983,
    "iso3c": "MHL",
    "basename": "Roi-Namur Island",
    "lat": 9.39775,
    "lon": 167.472683,
    "base": 1,
    "lilypad": 0,
    "fundedsite": 0
  },
  {
    "countryname": "Marshall Islands",
    "ccode": 983,
    "iso3c": "MHL",
    "basename": "Illeginni Island",
    "lat": 9.086984,
    "lon": 167.470858,
    "base": 1,
    "lilypad": 0,
    "fundedsite": 0
  },
  {
    "countryname": "Marshall Islands",
    "ccode": 983,
    "iso3c": "MHL",
    "basename": "Ennylabegan Island",
    "lat": 8.797108,
    "lon": 167.620299,
    "base": 1,
    "lilypad": 0,
    "fundedsite": 0
  },
  {
    "countryname": "Mauritania",
    "ccode": 435,
    "iso3c": "MRT",
    "basename": "Nuakchott (Air Force)",
    "lat": 18.100869,
    "lon": -15.95152,
    "base": 0,
    "lilypad": 1,
    "fundedsite": 0
  },
  {
    "countryname": "Netherlands",
    "ccode": 210,
    "iso3c": "NLD",
    "basename": "Brunssum",
    "lat": 50.948896,
    "lon": 5.972166,
    "base": 1,
    "lilypad": 0,
    "fundedsite": 0
  },
  {
    "countryname": "Netherlands",
    "ccode": 210,
    "iso3c": "NLD",
    "basename": "Schinnen",
    "lat": 50.942118,
    "lon": 5.861849,
    "base": 1,
    "lilypad": 0,
    "fundedsite": 0
  },
  {
    "countryname": "Netherlands",
    "ccode": 210,
    "iso3c": "NLD",
    "basename": "Coevorden",
    "lat": 52.643502,
    "lon": 6.727593,
    "base": 0,
    "lilypad": 1,
    "fundedsite": 0
  },
  {
    "countryname": "Netherlands",
    "ccode": 210,
    "iso3c": "NLD",
    "basename": "Eygelshoven",
    "lat": 50.90139,
    "lon": 6.073035,
    "base": 0,
    "lilypad": 1,
    "fundedsite": 0
  },
  {
    "countryname": "Netherlands",
    "ccode": 210,
    "iso3c": "NLD",
    "basename": "Rotterdam",
    "lat": 51.924216,
    "lon": 4.481776,
    "base": 0,
    "lilypad": 1,
    "fundedsite": 0
  },
  {
    "countryname": "Netherlands",
    "ccode": 210,
    "iso3c": "NLD",
    "basename": "Vriezenveen",
    "lat": 52.371812,
    "lon": 6.608841,
    "base": 0,
    "lilypad": 1,
    "fundedsite": 0
  },
  {
    "countryname": "Netherlands Antilles",
    "ccode": 210,
    "iso3c": "NLD",
    "basename": "Curacao Forward Operating Base",
    "lat": 12.186701,
    "lon": -68.96659,
    "base": 0,
    "lilypad": 1,
    "fundedsite": 0
  },
  {
    "countryname": "Niger",
    "ccode": 436,
    "iso3c": "NER",
    "basename": "Niamey airport",
    "lat": 13.481667,
    "lon": 2.170278,
    "base": 0,
    "lilypad": 1,
    "fundedsite": 0
  },
  {
    "countryname": "NIger",
    "ccode": 436,
    "iso3c": "NER",
    "basename": "Agadez",
    "lat": 16.941423,
    "lon": 8.003951,
    "base": 0,
    "lilypad": 1,
    "fundedsite": 0
  },
  {
    "countryname": "Northern Mariana Islands",
    "ccode": 2,
    "iso3c": "USA",
    "basename": "Tinian Navy Base",
    "lat": 15,
    "lon": 145.633333,
    "base": 1,
    "lilypad": 0,
    "fundedsite": 0
  },
  {
    "countryname": "Northern Mariana Islands",
    "ccode": 2,
    "iso3c": "USA",
    "basename": "Saipan",
    "lat": 15.183333,
    "lon": 145.75,
    "base": 1,
    "lilypad": 0,
    "fundedsite": 0
  },
  {
    "countryname": "Northern Mariana Islands",
    "ccode": 2,
    "iso3c": "USA",
    "basename": "Rota",
    "lat": 14.153611,
    "lon": 145.203056,
    "base": 0,
    "lilypad": 1,
    "fundedsite": 0
  },
  {
    "countryname": "Northern Mariana Islands",
    "ccode": 2,
    "iso3c": "USA",
    "basename": "Farallon de Medinilla",
    "lat": 16.017222,
    "lon": 146.058611,
    "base": 1,
    "lilypad": 0,
    "fundedsite": 0
  },
  {
    "countryname": "Norway",
    "ccode": 385,
    "iso3c": "NOR",
    "basename": "Vaernes",
    "lat": 63.463249,
    "lon": 10.937779,
    "base": 1,
    "lilypad": 0,
    "fundedsite": 0
  },
  {
    "countryname": "Norway",
    "ccode": 385,
    "iso3c": "NOR",
    "basename": "Bardufoss",
    "lat": 69.064444,
    "lon": 18.515,
    "base": 0,
    "lilypad": 1,
    "fundedsite": 0
  },
  {
    "countryname": "Oman",
    "ccode": 698,
    "iso3c": "OMN",
    "basename": "Masirah AB",
    "lat": 20.662694,
    "lon": 58.889231,
    "base": 1,
    "lilypad": 0,
    "fundedsite": 0
  },
  {
    "countryname": "Oman",
    "ccode": 698,
    "iso3c": "OMN",
    "basename": "Salalah Port, Rasut",
    "lat": 16.937528,
    "lon": 54.01158,
    "base": 1,
    "lilypad": 0,
    "fundedsite": 0
  },
  {
    "countryname": "Oman",
    "ccode": 698,
    "iso3c": "OMN",
    "basename": "Seeb",
    "lat": 23.602918,
    "lon": 58.281502,
    "base": 1,
    "lilypad": 0,
    "fundedsite": 0
  },
  {
    "countryname": "Oman",
    "ccode": 698,
    "iso3c": "OMN",
    "basename": "Thumrait",
    "lat": 17.666944,
    "lon": 54.032778,
    "base": 1,
    "lilypad": 0,
    "fundedsite": 0
  },
  {
    "countryname": "Oman",
    "ccode": 698,
    "iso3c": "OMN",
    "basename": "Mina Qabus, Muscat",
    "lat": 23.628056,
    "lon": 58.567778,
    "base": 1,
    "lilypad": 0,
    "fundedsite": 0
  },
  {
    "countryname": "Oman",
    "ccode": 698,
    "iso3c": "OMN",
    "basename": "Al Mussanah AB",
    "lat": 23.6273006,
    "lon": 57.4907601,
    "base": 1,
    "lilypad": 0,
    "fundedsite": 0
  },
  {
    "countryname": "Pakistan",
    "ccode": 770,
    "iso3c": "PAK",
    "basename": "Shahbaz/Jacobabad",
    "lat": 28.284538,
    "lon": 68.457576,
    "base": 0,
    "lilypad": 1,
    "fundedsite": 0
  },
  {
    "countryname": "Pakistan",
    "ccode": 770,
    "iso3c": "PAK",
    "basename": "Chaklala",
    "lat": 33.616389,
    "lon": 73.099167,
    "base": 0,
    "lilypad": 1,
    "fundedsite": 0
  },
  {
    "countryname": "Pakistan",
    "ccode": 770,
    "iso3c": "PAK",
    "basename": "Tarbela",
    "lat": 34.089311,
    "lon": 72.699284,
    "base": 0,
    "lilypad": 1,
    "fundedsite": 0
  },
  {
    "countryname": "Pakistan",
    "ccode": 770,
    "iso3c": "PAK",
    "basename": "Peshawar",
    "lat": 34.014627,
    "lon": 71.571293,
    "base": 0,
    "lilypad": 1,
    "fundedsite": 0
  },
  {
    "countryname": "Pakistan",
    "ccode": 770,
    "iso3c": "PAK",
    "basename": "Pasni",
    "lat": 25.29506,
    "lon": 63.347172,
    "base": 0,
    "lilypad": 1,
    "fundedsite": 0
  },
  {
    "countryname": "Pakistan",
    "ccode": 770,
    "iso3c": "PAK",
    "basename": "Islamabad",
    "lat": 33.70346,
    "lon": 73.083701,
    "base": 0,
    "lilypad": 1,
    "fundedsite": 0
  },
  {
    "countryname": "Panama",
    "ccode": 95,
    "iso3c": "PAN",
    "basename": "Summit",
    "lat": 9.0461965,
    "lon": -79.512991,
    "base": 0,
    "lilypad": 0,
    "fundedsite": 1
  },
  {
    "countryname": "Panama",
    "ccode": 95,
    "iso3c": "PAN",
    "basename": "Puerto Obaldia",
    "lat": 8.667103,
    "lon": -77.420606,
    "base": 0,
    "lilypad": 0,
    "fundedsite": 1
  },
  {
    "countryname": "Panama",
    "ccode": 95,
    "iso3c": "PAN",
    "basename": "Puerto Pina",
    "lat": 7.5832701,
    "lon": -78.1796112,
    "base": 0,
    "lilypad": 0,
    "fundedsite": 1
  },
  {
    "countryname": "Panama",
    "ccode": 95,
    "iso3c": "PAN",
    "basename": "Isla Grande",
    "lat": 9.630496,
    "lon": -79.565527,
    "base": 0,
    "lilypad": 0,
    "fundedsite": 1
  },
  {
    "countryname": "Panama",
    "ccode": 95,
    "iso3c": "PAN",
    "basename": "Punta Coco",
    "lat": 8.227555,
    "lon": -78.90509,
    "base": 0,
    "lilypad": 0,
    "fundedsite": 1
  },
  {
    "countryname": "Panama",
    "ccode": 95,
    "iso3c": "PAN",
    "basename": "La Palma",
    "lat": 8.286023,
    "lon": -78.182079,
    "base": 0,
    "lilypad": 0,
    "fundedsite": 1
  },
  {
    "countryname": "Peru",
    "ccode": 135,
    "iso3c": "PER",
    "basename": "Lima",
    "lat": -12.047816,
    "lon": -77.062203,
    "base": 0,
    "lilypad": 1,
    "fundedsite": 0
  },
  {
    "countryname": "Peru",
    "ccode": 135,
    "iso3c": "PER",
    "basename": "Tarapoto",
    "lat": -6.496591,
    "lon": -76.37249,
    "base": 0,
    "lilypad": 0,
    "fundedsite": 1
  },
  {
    "countryname": "Peru",
    "ccode": 135,
    "iso3c": "PER",
    "basename": "Puno",
    "lat": -15.84826,
    "lon": -70.019337,
    "base": 0,
    "lilypad": 1,
    "fundedsite": 0
  },
  {
    "countryname": "Peru",
    "ccode": 135,
    "iso3c": "PER",
    "basename": "IMF Santa Rosa, Iquitos",
    "lat": -3.744344,
    "lon": -73.26131,
    "base": 0,
    "lilypad": 1,
    "fundedsite": 1
  },
  {
    "countryname": "Peru",
    "ccode": 135,
    "iso3c": "PER",
    "basename": "Cecopaz, Ancon",
    "lat": -12.063471,
    "lon": -76.999831,
    "base": 0,
    "lilypad": 0,
    "fundedsite": 1
  },
  {
    "countryname": "Philippines",
    "ccode": 840,
    "iso3c": "PHL",
    "basename": "Camp Navarro, Zamboanga City , Mindanao (JSOTF-P)",
    "lat": 6.952438,
    "lon": 122.126041,
    "base": 0,
    "lilypad": 1,
    "fundedsite": 0
  },
  {
    "countryname": "Philippines",
    "ccode": 840,
    "iso3c": "PHL",
    "basename": "Subic",
    "lat": 14.822702,
    "lon": 120.276508,
    "base": 0,
    "lilypad": 1,
    "fundedsite": 0
  },
  {
    "countryname": "Philippines",
    "ccode": 840,
    "iso3c": "PHL",
    "basename": "Clark",
    "lat": 15.186718,
    "lon": 120.558402,
    "base": 0,
    "lilypad": 1,
    "fundedsite": 0
  },
  {
    "countryname": "Philippines",
    "ccode": 840,
    "iso3c": "PHL",
    "basename": "SF FOB Jolo, Sulu (CSL)",
    "lat": 6.056479,
    "lon": 121.012845,
    "base": 0,
    "lilypad": 1,
    "fundedsite": 0
  },
  {
    "countryname": "Philippines",
    "ccode": 840,
    "iso3c": "PHL",
    "basename": "Camp inside Camp Aguinaldo, Manila",
    "lat": 14.607638,
    "lon": 121.063244,
    "base": 0,
    "lilypad": 1,
    "fundedsite": 0
  },
  {
    "countryname": "Philippines",
    "ccode": 840,
    "iso3c": "PHL",
    "basename": "Camp Malagutay",
    "lat": 6.928294,
    "lon": 122.022565,
    "base": 0,
    "lilypad": 1,
    "fundedsite": 0
  },
  {
    "countryname": "Poland",
    "ccode": 290,
    "iso3c": "POL",
    "basename": "Lask AB",
    "lat": 51.559773,
    "lon": 19.173033,
    "base": 0,
    "lilypad": 1,
    "fundedsite": 0
  },
  {
    "countryname": "Poland",
    "ccode": 290,
    "iso3c": "POL",
    "basename": "Redzikowo",
    "lat": 54.473308,
    "lon": 17.111021,
    "base": 0,
    "lilypad": 1,
    "fundedsite": 0
  },
  {
    "countryname": "Portugal",
    "ccode": 235,
    "iso3c": "PRT",
    "basename": "Lajes field",
    "lat": 38.7617,
    "lon": -27.095,
    "base": 1,
    "lilypad": 0,
    "fundedsite": 0
  },
  {
    "countryname": "Puerto Rico",
    "ccode": 2,
    "iso3c": "USA",
    "basename": "Fort Buchanan",
    "lat": 18.412716,
    "lon": -66.121957,
    "base": 1,
    "lilypad": 0,
    "fundedsite": 0
  },
  {
    "countryname": "Puerto Rico",
    "ccode": 2,
    "iso3c": "USA",
    "basename": "Roosevelt Roads Naval Station, Cieba",
    "lat": 18.239406,
    "lon": -65.649776,
    "base": 1,
    "lilypad": 0,
    "fundedsite": 0
  },
  {
    "countryname": "Puerto Rico",
    "ccode": 2,
    "iso3c": "USA",
    "basename": "Capt E. Rubio USARC, Puerto Nuevo",
    "lat": 18.410489,
    "lon": -66.082924,
    "base": 1,
    "lilypad": 0,
    "fundedsite": 0
  },
  {
    "countryname": "Puerto Rico",
    "ccode": 2,
    "iso3c": "USA",
    "basename": "Fort Allen, Juana Diaz",
    "lat": 18.007621,
    "lon": -66.504189,
    "base": 1,
    "lilypad": 0,
    "fundedsite": 0
  },
  {
    "countryname": "Puerto Rico",
    "ccode": 2,
    "iso3c": "USA",
    "basename": "Isabela N00207-AB",
    "lat": 18.462925,
    "lon": -67.066925,
    "base": 1,
    "lilypad": 0,
    "fundedsite": 0
  },
  {
    "countryname": "Puerto Rico",
    "ccode": 2,
    "iso3c": "USA",
    "basename": "Naval Radio Transmitter Facility Aguada",
    "lat": 18.398611,
    "lon": -67.177222,
    "base": 1,
    "lilypad": 0,
    "fundedsite": 0
  },
  {
    "countryname": "Puerto Rico",
    "ccode": 2,
    "iso3c": "USA",
    "basename": "Salinas N00207-JA",
    "lat": 18.004377,
    "lon": -66.278605,
    "base": 1,
    "lilypad": 0,
    "fundedsite": 0
  },
  {
    "countryname": "Puerto Rico",
    "ccode": 2,
    "iso3c": "USA",
    "basename": "Luis Munoz Marin IAP",
    "lat": 18.439167,
    "lon": -66.001944,
    "base": 1,
    "lilypad": 0,
    "fundedsite": 0
  },
  {
    "countryname": "Puerto Rico",
    "ccode": 2,
    "iso3c": "USA",
    "basename": "Mount Pirata, Vieques",
    "lat": "NA",
    "lon": "NA",
    "base": 1,
    "lilypad": 0,
    "fundedsite": 0
  },
  {
    "countryname": "Puerto Rico",
    "ccode": 2,
    "iso3c": "USA",
    "basename": "MTA Camp Santiago Rq",
    "lat": 18.007111,
    "lon": -66.289646,
    "base": 1,
    "lilypad": 0,
    "fundedsite": 0
  },
  {
    "countryname": "Puerto Rico",
    "ccode": 2,
    "iso3c": "USA",
    "basename": "NSGA Sabana Seca",
    "lat": 18.43004,
    "lon": -66.189007,
    "base": 1,
    "lilypad": 0,
    "fundedsite": 0
  },
  {
    "countryname": "Puerto Rico",
    "ccode": 2,
    "iso3c": "USA",
    "basename": "Pico Del Este - AFWTF",
    "lat": 18.211485,
    "lon": -65.736512,
    "base": 1,
    "lilypad": 0,
    "fundedsite": 0
  },
  {
    "countryname": "Puerto Rico",
    "ccode": 2,
    "iso3c": "USA",
    "basename": "Pineros Island",
    "lat": 18.252155,
    "lon": -65.591137,
    "base": 1,
    "lilypad": 0,
    "fundedsite": 0
  },
  {
    "countryname": "Puerto Rico",
    "ccode": 2,
    "iso3c": "USA",
    "basename": "Punta Borinquen Radar Site",
    "lat": 18.485034,
    "lon": -67.148746,
    "base": 1,
    "lilypad": 0,
    "fundedsite": 0
  },
  {
    "countryname": "Puerto Rico",
    "ccode": 2,
    "iso3c": "USA",
    "basename": "Punta Salinas Radar Site",
    "lat": 18.47483,
    "lon": -66.18242,
    "base": 1,
    "lilypad": 0,
    "fundedsite": 0
  },
  {
    "countryname": "Puerto Rico",
    "ccode": 2,
    "iso3c": "USA",
    "basename": "Ramey AF Solar Observatory Research Site",
    "lat": 18.509421,
    "lon": -67.099153,
    "base": 1,
    "lilypad": 0,
    "fundedsite": 0
  },
  {
    "countryname": "Puerto Rico",
    "ccode": 2,
    "iso3c": "USA",
    "basename": "Ramey USARC/Aquadilla",
    "lat": 18.41047,
    "lon": -67.154153,
    "base": 1,
    "lilypad": 0,
    "fundedsite": 0
  },
  {
    "countryname": "Puerto Rico",
    "ccode": 2,
    "iso3c": "USA",
    "basename": "Roosevelt Rds Nav Sta USARC",
    "lat": 18.229103,
    "lon": -65.609241,
    "base": 1,
    "lilypad": 0,
    "fundedsite": 0
  },
  {
    "countryname": "Puerto Rico",
    "ccode": 2,
    "iso3c": "USA",
    "basename": "Vieques West",
    "lat": 18.139258,
    "lon": -65.290145,
    "base": 1,
    "lilypad": 0,
    "fundedsite": 0
  },
  {
    "countryname": "Qatar",
    "ccode": 694,
    "iso3c": "QAT",
    "basename": "Al Udeid AB",
    "lat": 25.117222,
    "lon": 51.314722,
    "base": 1,
    "lilypad": 0,
    "fundedsite": 0
  },
  {
    "countryname": "Qatar",
    "ccode": 694,
    "iso3c": "QAT",
    "basename": "As Sayliyah AB",
    "lat": 25.1878712,
    "lon": 51.4122936,
    "base": 1,
    "lilypad": 0,
    "fundedsite": 0
  },
  {
    "countryname": "Qatar",
    "ccode": 694,
    "iso3c": "QAT",
    "basename": "Umm Said",
    "lat": 24.996466,
    "lon": 51.548932,
    "base": 1,
    "lilypad": 0,
    "fundedsite": 0
  },
  {
    "countryname": "Qatar",
    "ccode": 694,
    "iso3c": "QAT",
    "basename": "Camp Al Karana",
    "lat": 25.1878712,
    "lon": 51.4122936,
    "base": 1,
    "lilypad": 0,
    "fundedsite": 0
  },
  {
    "countryname": "Qatar",
    "ccode": 694,
    "iso3c": "QAT",
    "basename": "Falcon-78 ammunition storage",
    "lat": 25.25553,
    "lon": 50.957647,
    "base": 1,
    "lilypad": 0,
    "fundedsite": 0
  },
  {
    "countryname": "Romania",
    "ccode": 360,
    "iso3c": "ROU",
    "basename": "Mihail Kogalniceanu (MK) AB",
    "lat": 44.362222,
    "lon": 28.488333,
    "base": 1,
    "lilypad": 0,
    "fundedsite": 0
  },
  {
    "countryname": "Romania",
    "ccode": 360,
    "iso3c": "ROU",
    "basename": "Deveselu",
    "lat": 44.077708,
    "lon": 24.416968,
    "base": 1,
    "lilypad": 0,
    "fundedsite": 0
  },
  {
    "countryname": "Romania",
    "ccode": 360,
    "iso3c": "ROU",
    "basename": "Babadag Training Base",
    "lat": 44.898056,
    "lon": 28.741944,
    "base": 1,
    "lilypad": 0,
    "fundedsite": 0
  },
  {
    "countryname": "Romania",
    "ccode": 360,
    "iso3c": "ROU",
    "basename": "Cincu Training Base",
    "lat": 45.923644,
    "lon": 24.796612,
    "base": 0,
    "lilypad": 1,
    "fundedsite": 0
  },
  {
    "countryname": "Romania",
    "ccode": 360,
    "iso3c": "ROU",
    "basename": "Smardan Training base",
    "lat": 45.518061,
    "lon": 27.914086,
    "base": 0,
    "lilypad": 1,
    "fundedsite": 0
  },
  {
    "countryname": "Saudi Arabia",
    "ccode": 670,
    "iso3c": "SAU",
    "basename": "Eskan Village",
    "lat": 24.583807,
    "lon": 46.862711,
    "base": 0,
    "lilypad": 1,
    "fundedsite": 0
  },
  {
    "countryname": "Saudi Arabia",
    "ccode": 670,
    "iso3c": "SAU",
    "basename": "Drone base in east, near Yemen",
    "lat": 19.115124,
    "lon": 50.127868,
    "base": 0,
    "lilypad": 1,
    "fundedsite": 0
  },
  {
    "countryname": "Saudi Arabia",
    "ccode": 670,
    "iso3c": "SAU",
    "basename": "Dammam, Saudi Arabia",
    "lat": 26.283333,
    "lon": 50.2,
    "base": 0,
    "lilypad": 1,
    "fundedsite": 0
  },
  {
    "countryname": "Saudi Arabia",
    "ccode": 670,
    "iso3c": "SAU",
    "basename": "Dhahran AB, Saudi Arabia",
    "lat": 26.265278,
    "lon": 50.151944,
    "base": 0,
    "lilypad": 1,
    "fundedsite": 0
  },
  {
    "countryname": "Saudi Arabia",
    "ccode": 670,
    "iso3c": "SAU",
    "basename": "Jubail, Saudi Arabia",
    "lat": 27,
    "lon": 49.666667,
    "base": 0,
    "lilypad": 1,
    "fundedsite": 0
  },
  {
    "countryname": "Saudi Arabia",
    "ccode": 670,
    "iso3c": "SAU",
    "basename": "Yanbu, Saudi Arabia",
    "lat": 24.083333,
    "lon": 38,
    "base": 0,
    "lilypad": 1,
    "fundedsite": 0
  },
  {
    "countryname": "Saudi Arabia",
    "ccode": 670,
    "iso3c": "SAU",
    "basename": "Khamis",
    "lat": 18.306944,
    "lon": 42.809167,
    "base": 0,
    "lilypad": 1,
    "fundedsite": 0
  },
  {
    "countryname": "Saudi Arabia",
    "ccode": 670,
    "iso3c": "SAU",
    "basename": "Taif",
    "lat": 21.479308,
    "lon": 40.551255,
    "base": 0,
    "lilypad": 1,
    "fundedsite": 0
  },
  {
    "countryname": "Saudi Arabia",
    "ccode": 670,
    "iso3c": "SAU",
    "basename": "Tabuk",
    "lat": 28.362467,
    "lon": 36.579508,
    "base": 0,
    "lilypad": 1,
    "fundedsite": 0
  },
  {
    "countryname": "Senegal",
    "ccode": 433,
    "iso3c": "SEN",
    "basename": "Dakar",
    "lat": 14.728252,
    "lon": -17.457471,
    "base": 0,
    "lilypad": 1,
    "fundedsite": 0
  },
  {
    "countryname": "Seychelles",
    "ccode": 591,
    "iso3c": "SYC",
    "basename": "Mahe International Airport",
    "lat": -4.674344,
    "lon": 55.521853,
    "base": 0,
    "lilypad": 1,
    "fundedsite": 0
  },
  {
    "countryname": "Singapore",
    "ccode": 830,
    "iso3c": "SGP",
    "basename": "Sembawang",
    "lat": 1.460138,
    "lon": 103.823108,
    "base": 1,
    "lilypad": 0,
    "fundedsite": 0
  },
  {
    "countryname": "Singapore",
    "ccode": 830,
    "iso3c": "SGP",
    "basename": "Changi",
    "lat": 1.320702,
    "lon": 104.026958,
    "base": 0,
    "lilypad": 1,
    "fundedsite": 0
  },
  {
    "countryname": "Somalia",
    "ccode": 520,
    "iso3c": "SOM",
    "basename": "Baledogle Airfield",
    "lat": 2.670833,
    "lon": 44.793056,
    "base": 0,
    "lilypad": 1,
    "fundedsite": 0
  },
  {
    "countryname": "Somalia",
    "ccode": 520,
    "iso3c": "SOM",
    "basename": "Kismayo Airport",
    "lat": -0.375531,
    "lon": 42.459912,
    "base": 0,
    "lilypad": 1,
    "fundedsite": 0
  },
  {
    "countryname": "South Sudan",
    "ccode": 626,
    "iso3c": "SSD",
    "basename": "Nzara",
    "lat": 4.633437,
    "lon": 28.254596,
    "base": 0,
    "lilypad": 1,
    "fundedsite": 0
  },
  {
    "countryname": "Spain",
    "ccode": 230,
    "iso3c": "ESP",
    "basename": "Moron AB",
    "lat": 37.174999,
    "lon": -5.616,
    "base": 1,
    "lilypad": 0,
    "fundedsite": 0
  },
  {
    "countryname": "Spain",
    "ccode": 230,
    "iso3c": "ESP",
    "basename": "Rota NB",
    "lat": 36.639957,
    "lon": -6.339344,
    "base": 1,
    "lilypad": 0,
    "fundedsite": 0
  },
  {
    "countryname": "Syria",
    "ccode": 652,
    "iso3c": "SYR",
    "basename": "Xerab Hisk/Harab Isk",
    "lat": 36.553683,
    "lon": 38.594818,
    "base": 1,
    "lilypad": 0,
    "fundedsite": 0
  },
  {
    "countryname": "Syria",
    "ccode": 652,
    "iso3c": "SYR",
    "basename": "Rmelan Airport",
    "lat": 36.898448,
    "lon": 41.997539,
    "base": 1,
    "lilypad": 0,
    "fundedsite": 0
  },
  {
    "countryname": "Syria",
    "ccode": 652,
    "iso3c": "SYR",
    "basename": "Tell Beydar/Tal Baydar",
    "lat": 36.739067,
    "lon": 40.581155,
    "base": 0,
    "lilypad": 1,
    "fundedsite": 0
  },
  {
    "countryname": "Syria",
    "ccode": 652,
    "iso3c": "SYR",
    "basename": "Tall Tamr/Tal Tamir",
    "lat": 36.656857,
    "lon": 40.368727,
    "base": 0,
    "lilypad": 1,
    "fundedsite": 0
  },
  {
    "countryname": "Syria",
    "ccode": 652,
    "iso3c": "SYR",
    "basename": "Ash Shaddadi",
    "lat": 36.056365,
    "lon": 40.730751,
    "base": 0,
    "lilypad": 1,
    "fundedsite": 0
  },
  {
    "countryname": "Syria",
    "ccode": 652,
    "iso3c": "SYR",
    "basename": "Ayn Issah/Ain Issa",
    "lat": 36.384842,
    "lon": 38.867184,
    "base": 0,
    "lilypad": 1,
    "fundedsite": 0
  },
  {
    "countryname": "Syria",
    "ccode": 652,
    "iso3c": "SYR",
    "basename": "Kobani/Ayn Al-Arab",
    "lat": 36.891028,
    "lon": 38.349996,
    "base": 0,
    "lilypad": 1,
    "fundedsite": 0
  },
  {
    "countryname": "Syria",
    "ccode": 652,
    "iso3c": "SYR",
    "basename": "Sabt",
    "lat": "NA",
    "lon": "NA",
    "base": 0,
    "lilypad": 1,
    "fundedsite": 0
  },
  {
    "countryname": "Syria",
    "ccode": 652,
    "iso3c": "SYR",
    "basename": "Ushariya",
    "lat": "NA",
    "lon": "NA",
    "base": 0,
    "lilypad": 1,
    "fundedsite": 0
  },
  {
    "countryname": "Syria",
    "ccode": 652,
    "iso3c": "SYR",
    "basename": "Ayn Dadad",
    "lat": "NA",
    "lon": "NA",
    "base": 0,
    "lilypad": 1,
    "fundedsite": 0
  },
  {
    "countryname": "Thailand",
    "ccode": 800,
    "iso3c": "THA",
    "basename": "U-Tapao",
    "lat": 12.68174,
    "lon": 100.998486,
    "base": 0,
    "lilypad": 1,
    "fundedsite": 0
  },
  {
    "countryname": "Tunisia",
    "ccode": 616,
    "iso3c": "TUN",
    "basename": "CK: Mount Chaambi, Kasserine",
    "lat": 35.217949,
    "lon": 8.748524,
    "base": 1,
    "lilypad": 0,
    "fundedsite": 0
  },
  {
    "countryname": "Turkey",
    "ccode": 640,
    "iso3c": "TUR",
    "basename": "Ankara Admin Office",
    "lat": 39.92077,
    "lon": 32.85411,
    "base": 1,
    "lilypad": 0,
    "fundedsite": 0
  },
  {
    "countryname": "Turkey",
    "ccode": 640,
    "iso3c": "TUR",
    "basename": "Batman AB",
    "lat": 37.915833,
    "lon": 41.141944,
    "base": 1,
    "lilypad": 0,
    "fundedsite": 0
  },
  {
    "countryname": "Turkey",
    "ccode": 640,
    "iso3c": "TUR",
    "basename": "Izmir AS",
    "lat": 38.41885,
    "lon": 27.12872,
    "base": 1,
    "lilypad": 0,
    "fundedsite": 0
  },
  {
    "countryname": "Turkey",
    "ccode": 640,
    "iso3c": "TUR",
    "basename": "Incirlik AB",
    "lat": 37.003237,
    "lon": 35.425827,
    "base": 1,
    "lilypad": 0,
    "fundedsite": 0
  },
  {
    "countryname": "Turkey",
    "ccode": 640,
    "iso3c": "TUR",
    "basename": "Cigli AB",
    "lat": 38.512778,
    "lon": 27.01,
    "base": 1,
    "lilypad": 0,
    "fundedsite": 0
  },
  {
    "countryname": "Turkey",
    "ccode": 640,
    "iso3c": "TUR",
    "basename": "Yumurzalik Petroleum Storage",
    "lat": 36.774681,
    "lon": 35.788219,
    "base": 1,
    "lilypad": 0,
    "fundedsite": 0
  },
  {
    "countryname": "Uganda",
    "ccode": 500,
    "iso3c": "UGA",
    "basename": "Entebbe",
    "lat": 0.047072,
    "lon": 32.445657,
    "base": 0,
    "lilypad": 1,
    "fundedsite": 0
  },
  {
    "countryname": "Uganda",
    "ccode": 500,
    "iso3c": "UGA",
    "basename": "Singo Training School",
    "lat": -0.800173,
    "lon": 31.498282,
    "base": 0,
    "lilypad": 1,
    "fundedsite": 0
  },
  {
    "countryname": "United Arab Emirates",
    "ccode": 696,
    "iso3c": "ARE",
    "basename": "Al Dhafra",
    "lat": 24.24,
    "lon": 54.548333,
    "base": 1,
    "lilypad": 0,
    "fundedsite": 0
  },
  {
    "countryname": "United Arab Emirates",
    "ccode": 696,
    "iso3c": "ARE",
    "basename": "Fujairah Aviation Unit",
    "lat": 25.1,
    "lon": 56.21,
    "base": 1,
    "lilypad": 0,
    "fundedsite": 0
  },
  {
    "countryname": "United Arab Emirates",
    "ccode": 696,
    "iso3c": "ARE",
    "basename": "Jebel Ali",
    "lat": 25.01126,
    "lon": 55.06116,
    "base": 1,
    "lilypad": 0,
    "fundedsite": 0
  },
  {
    "countryname": "United Kingdom",
    "ccode": 200,
    "iso3c": "GBR",
    "basename": "Barford St John Transmitter Annex",
    "lat": 52.003944,
    "lon": -1.360415,
    "base": 1,
    "lilypad": 0,
    "fundedsite": 0
  },
  {
    "countryname": "United Kingdom",
    "ccode": 200,
    "iso3c": "GBR",
    "basename": "Bicester",
    "lat": 51.899603,
    "lon": -1.15359,
    "base": 1,
    "lilypad": 0,
    "fundedsite": 0
  },
  {
    "countryname": "United Kingdom",
    "ccode": 200,
    "iso3c": "GBR",
    "basename": "Blenheim Crescent",
    "lat": 51.569444,
    "lon": -0.433611,
    "base": 1,
    "lilypad": 0,
    "fundedsite": 0
  },
  {
    "countryname": "United Kingdom",
    "ccode": 200,
    "iso3c": "GBR",
    "basename": "Alconbury",
    "lat": 52.363333,
    "lon": -0.222778,
    "base": 1,
    "lilypad": 0,
    "fundedsite": 0
  },
  {
    "countryname": "United Kingdom",
    "ccode": 200,
    "iso3c": "GBR",
    "basename": "Molesworth",
    "lat": 52.3803,
    "lon": -0.408791,
    "base": 1,
    "lilypad": 0,
    "fundedsite": 0
  },
  {
    "countryname": "United Kingdom",
    "ccode": 200,
    "iso3c": "GBR",
    "basename": "Molesworth Storage Annex",
    "lat": 52.369653,
    "lon": -0.426457,
    "base": 1,
    "lilypad": 0,
    "fundedsite": 0
  },
  {
    "countryname": "United Kingdom",
    "ccode": 200,
    "iso3c": "GBR",
    "basename": "Menwith Hill",
    "lat": 54.008083,
    "lon": -1.688061,
    "base": 1,
    "lilypad": 0,
    "fundedsite": 0
  },
  {
    "countryname": "United Kingdom",
    "ccode": 200,
    "iso3c": "GBR",
    "basename": "Lakenheath",
    "lat": 52.406006,
    "lon": 0.559223,
    "base": 1,
    "lilypad": 0,
    "fundedsite": 0
  },
  {
    "countryname": "United Kingdom",
    "ccode": 200,
    "iso3c": "GBR",
    "basename": "Eriswell FH Annex, Lakenheath",
    "lat": 52.413917,
    "lon": 0.521854,
    "base": 1,
    "lilypad": 0,
    "fundedsite": 0
  },
  {
    "countryname": "United Kingdom",
    "ccode": 200,
    "iso3c": "GBR",
    "basename": "Croughton",
    "lat": 51.987809,
    "lon": -1.186094,
    "base": 1,
    "lilypad": 0,
    "fundedsite": 0
  },
  {
    "countryname": "United Kingdom",
    "ccode": 200,
    "iso3c": "GBR",
    "basename": "Ely Housing Complex",
    "lat": 52.399539,
    "lon": 0.262363,
    "base": 1,
    "lilypad": 0,
    "fundedsite": 0
  },
  {
    "countryname": "United Kingdom",
    "ccode": 200,
    "iso3c": "GBR",
    "basename": "Fairford",
    "lat": 51.685016,
    "lon": -1.780387,
    "base": 1,
    "lilypad": 0,
    "fundedsite": 0
  },
  {
    "countryname": "United Kingdom",
    "ccode": 200,
    "iso3c": "GBR",
    "basename": "Feltwell",
    "lat": 52.486378,
    "lon": 0.519412,
    "base": 1,
    "lilypad": 0,
    "fundedsite": 0
  },
  {
    "countryname": "United Kingdom",
    "ccode": 200,
    "iso3c": "GBR",
    "basename": "Mildenhall",
    "lat": 52.361697,
    "lon": 0.48558,
    "base": 1,
    "lilypad": 0,
    "fundedsite": 0
  },
  {
    "countryname": "United Kingdom",
    "ccode": 200,
    "iso3c": "GBR",
    "basename": "Mildenhall Ammo Storage Annex",
    "lat": 52.344421,
    "lon": 0.510947,
    "base": 1,
    "lilypad": 0,
    "fundedsite": 0
  },
  {
    "countryname": "United Kingdom",
    "ccode": 200,
    "iso3c": "GBR",
    "basename": "Welford Ammo Storage Annex",
    "lat": 52.414995,
    "lon": -1.056133,
    "base": 1,
    "lilypad": 0,
    "fundedsite": 0
  },
  {
    "countryname": "Uruguay",
    "ccode": 165,
    "iso3c": "URY",
    "basename": "14th Battalion, Toledo",
    "lat": -34.740542,
    "lon": -56.096084,
    "base": 0,
    "lilypad": 0,
    "fundedsite": 1
  },
  {
    "countryname": "Virgin Islands",
    "ccode": 2,
    "iso3c": "USA",
    "basename": "Fredricksted",
    "lat": 17.712519,
    "lon": -64.880846,
    "base": 1,
    "lilypad": 0,
    "fundedsite": 0
  },
  {
    "countryname": "Virgin Islands",
    "ccode": 2,
    "iso3c": "USA",
    "basename": "Christiansted",
    "lat": 17.74661,
    "lon": -64.702897,
    "base": 1,
    "lilypad": 0,
    "fundedsite": 0
  },
  {
    "countryname": "Wake Island",
    "ccode": 2,
    "iso3c": "USA",
    "basename": "Wake Island",
    "lat": 19.280042,
    "lon": 166.647717,
    "base": 0,
    "lilypad": 1,
    "fundedsite": 0
  }
]