[{"id":"8911bf65-229c-40b7-ae0b-ee70698a4614","name":"Gwenneth Crutch","location":"Motala","address":"6146 Moulton Parkway","industryType":"Logistics"},
{"id":"01817890-3724-43f0-ac78-9e44c2a2d269","name":"Danita Inchboard","location":"Yishan","address":"2 Starling Way","industryType":"Logistics"},
{"id":"6c0e03f3-2f8d-4273-aa08-1f92c72967bb","name":"Eddy Follacaro","location":"Beicang","address":"79255 Scoville Circle","industryType":"Logistics"},
{"id":"e43ea3b3-cfc4-4ab0-bc66-57c42f60d4d9","name":"Rhona Beddow","location":"Mandaue City","address":"11974 Cascade Place","industryType":"Logistics"},
{"id":"de8dcc64-7827-4fdd-b9c1-24b547616aec","name":"Lynde Alfonsini","location":"El Plan","address":"68209 Marcy Point","industryType":"Logistics"},
{"id":"d22dfc33-86eb-46a8-8000-31f7059a1799","name":"Joann Diglin","location":"Librazhd","address":"492 Warrior Pass","industryType":"Banking"},
{"id":"538d9dfe-11b5-4202-9108-2cc142a2deca","name":"Amelie Currm","location":"Tapilon","address":"6 Moland Parkway","industryType":"Retail"},
{"id":"30bb7db2-0350-4ea8-8aa2-f9028bf8d485","name":"Humfrey Collerd","location":"Kashiwazaki","address":"329 Declaration Center","industryType":"Media"},
{"id":"1f3dbaac-0a3d-4d27-b766-65b77359ec0a","name":"Haze Gittings","location":"Tenja","address":"118 Burrows Hill","industryType":"Logistics"},
{"id":"55d184b6-9a23-4d50-aa66-2e41ddbe072f","name":"Eleanore Threadgill","location":"La Poma","address":"11 Gulseth Avenue","industryType":"Insurance"},
{"id":"6030b594-490f-49a9-9d19-3fff9b6aec07","name":"Lilli Gittens","location":"Oslo","address":"1722 Emmet Street","industryType":"Logistics"},
{"id":"cf6393ea-72ec-42b8-b840-a8aa1831a78e","name":"Zach Sirl","location":"Västerås","address":"59 Cordelia Terrace","industryType":"Banking"},
{"id":"5e7509a0-adce-445e-be4f-975267a6ff2c","name":"Ulrick Mellings","location":"Si Thep","address":"9 Swallow Point","industryType":"Logistics"},
{"id":"0b70cc69-f761-4971-a28f-440c991f3faa","name":"Neel Hickford","location":"Erdaobaihe","address":"19 Stoughton Court","industryType":"Logistics"},
{"id":"14321e6a-7c7c-4399-9956-01b14382b34a","name":"Karyn Fish","location":"Privodino","address":"5 Erie Drive","industryType":"Banking"},
{"id":"e5ab3e1e-dd48-44e6-86e6-3c51a94c26ba","name":"Neddie Itzik","location":"Kashiwazaki","address":"43786 Fordem Parkway","industryType":"Banking"},
{"id":"9bc0ab63-8b55-4fa4-878f-b594653f5b96","name":"Panchito Coyte","location":"Nizhnyaya Salda","address":"7 Sloan Hill","industryType":"Logistics"},
{"id":"ab2d16c2-0687-4cbd-a54e-b6b4d447ed81","name":"Palm Gingles","location":"Santa María de Jesús","address":"633 Utah Crossing","industryType":"Logistics"},
{"id":"578df988-d991-41b0-a9b9-a9c8945069b9","name":"Tawsha Worwood","location":"Jiuxi","address":"635 Del Sol Parkway","industryType":"Logistics"},
{"id":"5b92b8b0-7961-4e0d-b690-34eef0672a54","name":"Tomas Barkess","location":"Zengtian","address":"662 Fordem Trail","industryType":"Banking"},
{"id":"e6ff8df7-e789-44dd-b08a-3646887ab855","name":"Kristoforo Pimlott","location":"Brněnec","address":"1079 Rigney Court","industryType":"Logistics"},
{"id":"a24b73aa-ff9a-418a-8ea0-37c4fede9120","name":"Goddard Kopp","location":"Raglan","address":"69263 Orin Circle","industryType":"Logistics"},
{"id":"dc95dce9-b753-47b2-b5cf-7bd94de15f32","name":"Rozelle Gritton","location":"Energeticheskiy","address":"1 Bellgrove Lane","industryType":"Logistics"},
{"id":"1b3a9e84-1052-454e-8c75-b6e7f5dcd350","name":"Arv Henrion","location":"Huaqiao","address":"98 Farragut Parkway","industryType":"Banking"},
{"id":"e296a2f2-db5e-4d61-9576-736426257980","name":"Caddric Delbergue","location":"Tarragona","address":"54 Monument Drive","industryType":"Insurance"},
{"id":"72c64c48-fb19-4b65-99c0-943ecceef92a","name":"Estrella Barck","location":"Suwaru","address":"90487 Clarendon Court","industryType":"Logistics"},
{"id":"a2dd68ca-fefa-49fd-9b33-249278c511a6","name":"Torey Haydon","location":"Lubao","address":"64438 Pepper Wood Alley","industryType":"Banking"},
{"id":"964a273d-f270-4caf-b062-fccb233437f5","name":"Kipper Duffrie","location":"Vysoké nad Jizerou","address":"604 Thompson Center","industryType":"Logistics"},
{"id":"79f8de68-d7e5-4daf-bebf-98b16bc9db50","name":"Anders Tippell","location":"Zhichu","address":"866 Pennsylvania Plaza","industryType":"Logistics"},
{"id":"995bad84-84e3-4563-9131-8c8158dc21f5","name":"Mord Healks","location":"Changxing","address":"4755 Ryan Street","industryType":"Banking"},
{"id":"f281a0fa-cc7c-41f7-8615-5bde1cf6cda2","name":"Heddie Iorizzo","location":"Nizui","address":"65818 Mifflin Place","industryType":"Banking"},
{"id":"ac17a58c-58f9-4009-acb8-8b92cfd4d14b","name":"Kandace Moulden","location":"Nanjia","address":"760 Butternut Center","industryType":"Banking"},
{"id":"57cae2c6-72df-42fc-bf37-a60d98c8fb2c","name":"Frazier Hince","location":"Sterlibashevo","address":"71 Bay Parkway","industryType":"Logistics"},
{"id":"0ce82ed6-403a-480a-ad7f-db67c3862e17","name":"Hiram Sudworth","location":"Ždánice","address":"4 Prairieview Court","industryType":"Logistics"},
{"id":"7a105b82-88df-4153-be32-7ba14883a9bc","name":"Drusie Clementucci","location":"Ridder","address":"80482 Dexter Avenue","industryType":"Banking"},
{"id":"19ff6de3-c282-435c-b7fa-5b38c1492779","name":"Conroy Copozio","location":"Pushkino","address":"437 Weeping Birch Trail","industryType":"Logistics"},
{"id":"85dd1de6-b813-4340-b31a-783d03ab8f41","name":"Layney Marvel","location":"Balakhninskiy","address":"831 Vernon Court","industryType":"Banking"},
{"id":"c6410e15-a2b3-4583-a4a7-f1fe13479283","name":"Barr Markey","location":"Sumqayıt","address":"8832 4th Parkway","industryType":"Logistics"},
{"id":"30f84d4c-ecef-40fc-9e40-2cc0628a5907","name":"Camilla Ghione","location":"Xinzhou","address":"3 Sheridan Center","industryType":"Insurance"},
{"id":"754e534b-0fa9-48f1-aa6c-c406c5b3b39f","name":"Ingaberg Barnwell","location":"Pilang","address":"6 Dryden Place","industryType":"Banking"},
{"id":"144c9fac-4b3c-4420-a219-a64c86b9d4c8","name":"Hubie Barts","location":"Wangshi","address":"71672 Northfield Court","industryType":"Logistics"},
{"id":"43f61c2b-ae61-4370-a31a-dde83ab4322b","name":"Shauna Burndred","location":"Oodweyne","address":"09 Straubel Avenue","industryType":"Banking"},
{"id":"e70f1f91-2264-4af4-9dea-bb0cc6b62c64","name":"Giffy Vannikov","location":"Ulset","address":"1017 Bartillon Street","industryType":"Banking"},
{"id":"30578d34-217a-4945-bb2b-faede72daaed","name":"Dermot Starcks","location":"Vrýses","address":"1665 Bartelt Street","industryType":"Logistics"},
{"id":"a6e8758e-02b9-41cf-b435-60b3c1529770","name":"Rianon Robinette","location":"Yanqi","address":"48473 Brown Terrace","industryType":"Logistics"},
{"id":"58ac0e55-d11d-437e-9522-9fd8b77c15c2","name":"Esmeralda Gedney","location":"María la Baja","address":"57209 Myrtle Crossing","industryType":"Logistics"},
{"id":"28fefd9e-bf76-4da5-b018-4fcd248538a8","name":"Lacy Yosselevitch","location":"Arroyo Seco","address":"97 Thierer Point","industryType":"Logistics"},
{"id":"2f251420-624b-4038-a492-f323087f2b16","name":"Carie Keirle","location":"Caacupé","address":"622 Oneill Terrace","industryType":"Banking"},
{"id":"4f504f13-f9dc-49cd-b6fe-01323937e891","name":"Juditha Gusticke","location":"Toufang","address":"57194 Center Circle","industryType":"Logistics"},
{"id":"2bd26b3f-f576-498e-8210-89c436c93d71","name":"Ursulina Arnoll","location":"Kayar","address":"81 Merrick Point","industryType":"Logistics"},
{"id":"c0b6feec-7292-46e0-bdda-e1197115fe79","name":"Laetitia Cessford","location":"Bang Bo District","address":"41 Ridgeway Way","industryType":"Logistics"},
{"id":"086037dd-569e-4512-aa9d-4e3b82b966dc","name":"Mellicent Josefer","location":"Nunbaundelha","address":"5 Killdeer Trail","industryType":"Logistics"},
{"id":"c41e6478-c0e5-4595-ae08-1986022a0fbb","name":"Jarred Kells","location":"Dian-ay","address":"7535 Hoffman Avenue","industryType":"Logistics"},
{"id":"404eabef-911f-4611-b6e1-ef81aa372cea","name":"Kalvin Sundin","location":"San Celestio","address":"0353 Arrowood Park","industryType":"Logistics"},
{"id":"1f926359-0cb1-45aa-b30a-4fdd0174fce7","name":"Grange Gosker","location":"Cetinje","address":"06 Forest Court","industryType":"Logistics"},
{"id":"f3be3f3c-68cf-42e6-baa8-1708009b6fc6","name":"Elsbeth Weinham","location":"Tagakpan","address":"306 Tennessee Avenue","industryType":"Logistics"},
{"id":"b2bd79aa-cc9d-4664-8255-299faa046c81","name":"Leoline Balden","location":"Port Louis","address":"39480 Coolidge Street","industryType":"Logistics"},
{"id":"59873c61-57dd-44fa-96aa-81e1b96bece7","name":"Agatha Hughesdon","location":"Roubaix","address":"7 Jana Crossing","industryType":"Logistics"},
{"id":"fce953cd-b037-4044-b280-266439a39fc0","name":"Daphne Mattiassi","location":"El Cantón","address":"41 Sugar Hill","industryType":"Logistics"},
{"id":"f58d6ede-1ad6-4d50-8fdb-17cd2335f069","name":"Dermot Dowber","location":"Manas","address":"1419 Sherman Park","industryType":"Logistics"},
{"id":"daf6440a-c16e-4d80-bf49-bed9f093fa33","name":"Rickie Ghelarducci","location":"Carpenter","address":"84 Walton Drive","industryType":"Logistics"},
{"id":"5fde4471-8c4c-49f7-a379-6f1c67e2cb5e","name":"Imogen Andrus","location":"White City","address":"1 Lindbergh Plaza","industryType":"Logistics"},
{"id":"67104794-ed2c-4688-a2c8-c0fbfda1a54c","name":"Romain Jannasch","location":"Dambulla","address":"5829 Eliot Alley","industryType":"Logistics"},
{"id":"636800a4-f94e-45e6-a2dc-97939d8c444a","name":"Wesley Sherel","location":"Huaping","address":"91639 Green Ridge Junction","industryType":"Media"},
{"id":"b4e0297b-3af5-4ade-88e7-fb5100184ce4","name":"Lorant Surtees","location":"Cikalang","address":"4 La Follette Road","industryType":"Banking"},
{"id":"d48ad7f8-fa67-4961-ad63-a0e04b0a543f","name":"Syd Spurden","location":"Cayenne","address":"5813 Gateway Street","industryType":"Logistics"},
{"id":"a92c01a7-9f33-4130-8f90-e2855a2d26bc","name":"Teri Croy","location":"Borek","address":"673 Pearson Drive","industryType":"Insurance"},
{"id":"9871b095-56b6-4729-b815-8c205370a995","name":"Levy Greenhaugh","location":"Quilino","address":"9 Westerfield Way","industryType":"Media"},
{"id":"122a229c-8673-4e60-a87d-980dfc8f6953","name":"Dar Kures","location":"Växjö","address":"523 Bayside Place","industryType":"Banking"},
{"id":"f5033206-cb49-45d2-a4a1-e087c41abfbd","name":"Rickard Ilott","location":"Timbaúba","address":"788 Ridgeway Pass","industryType":"Insurance"},
{"id":"a2b07374-834d-4139-9294-eb477a514b6d","name":"Ximenez Bretland","location":"Cilangkap","address":"88 Anniversary Center","industryType":"Logistics"},
{"id":"cf2a643e-f119-47ba-a9f2-46bcb25a97fa","name":"Adelind Dwire","location":"Navan","address":"67 Birchwood Point","industryType":"Logistics"},
{"id":"b43978b8-37aa-44ec-b90d-1ae9f0ceb6e1","name":"Kaitlynn Balassa","location":"Tangwāni","address":"06955 Oneill Center","industryType":"Banking"},
{"id":"385f0fde-d6d6-4c64-95d7-dc4c7d43720c","name":"Belita De Gowe","location":"Bagumbayan","address":"823 Donald Pass","industryType":"Insurance"},
{"id":"728fdac8-d39e-4291-bf51-21aa340ba423","name":"Sandor Abendroth","location":"Ankazondandy","address":"95 Washington Drive","industryType":"Banking"},
{"id":"6f4e0ce2-7c6b-4eea-915a-487dad0bac1e","name":"Wilhelmine Leal","location":"Reriz","address":"7 Hudson Plaza","industryType":"Insurance"},
{"id":"c4b8e34f-7f2b-4071-804f-6786258810ab","name":"Rickie Lorroway","location":"Nanling","address":"4 Sage Place","industryType":"Logistics"},
{"id":"8022c2ee-7263-4a00-bf3f-22e3a6040ce6","name":"Alana Skudder","location":"Angochi","address":"25 Basil Court","industryType":"Banking"},
{"id":"1dee49a7-6657-458e-bbcc-f78e8a0baf92","name":"Simonne Alsford","location":"Andkhōy","address":"44 Spohn Plaza","industryType":"Retail"},
{"id":"b5f66d07-ada1-45fc-ab54-f7f554ba53ea","name":"Kessia Palphreyman","location":"Majiao","address":"3073 Kedzie Alley","industryType":"Logistics"},
{"id":"6dea456b-1aba-436f-8d95-50349fbb8056","name":"Haley Alphonso","location":"Piúma","address":"913 Carey Avenue","industryType":"Insurance"},
{"id":"f8f4798b-b276-4fc3-85ff-46cef1705580","name":"Gino Druhan","location":"Bajera","address":"4 Waywood Alley","industryType":"Retail"},
{"id":"be50d445-dae1-414c-aa8a-50ae47d77197","name":"Randal Shacklady","location":"Potoni","address":"4 Aberg Road","industryType":"Insurance"},
{"id":"06b9f8fe-96e2-4ed5-9ca0-b578e3806eef","name":"Raven Seville","location":"Tekikbanyuurip","address":"3405 Bartillon Junction","industryType":"Logistics"},
{"id":"d97c0cd3-9fbd-4dd3-95c1-2c1cbf74f31f","name":"Bethanne Lurriman","location":"Anwen","address":"9217 Merrick Hill","industryType":"Insurance"},
{"id":"29749326-5450-4bbf-b531-445833530ba7","name":"Selinda Standering","location":"Carazinho","address":"4508 Waywood Way","industryType":"Logistics"},
{"id":"8726a554-4bbb-42c8-a424-5e276f027421","name":"Ty Basindale","location":"Molochnoye","address":"2 Graedel Crossing","industryType":"Logistics"},
{"id":"7e8f77ec-d09d-4144-97e4-df363e9f3ed7","name":"Bunnie Belliard","location":"Karangbenda","address":"6 Starling Court","industryType":"Banking"},
{"id":"0b8da2a2-308a-453e-8b80-22c022c002b0","name":"Clarissa Southern","location":"Tabalong","address":"245 Pond Plaza","industryType":"Banking"},
{"id":"f6c876b8-86bd-4243-8dd6-bb571623f1df","name":"Hetty Elfitt","location":"Krumvíř","address":"2 Logan Crossing","industryType":"Logistics"},
{"id":"ba9ea0e3-362a-4b81-b45c-86a043449355","name":"Tarrance Cowgill","location":"Xinmin","address":"839 Magdeline Center","industryType":"Insurance"},
{"id":"00df3fb5-931a-4ed7-b7eb-4cde6692a2eb","name":"Francklin Isaksson","location":"Mingzhong","address":"31781 Heffernan Place","industryType":"Insurance"},
{"id":"977b1862-0877-4718-883a-6c8925d90e1f","name":"Iolande Sponton","location":"Gaula","address":"12417 West Junction","industryType":"Banking"},
{"id":"b60e0b80-10f7-4286-b39f-19b5ccb1cffe","name":"Cole Swindells","location":"Évry","address":"7 Cody Trail","industryType":"Retail"},
{"id":"3f2d7d48-c24f-4b1a-88c0-6af25a296d40","name":"Roseanna Delgardillo","location":"Samut Sakhon","address":"6 Carberry Center","industryType":"Banking"},
{"id":"aacfa586-0bc6-4940-944e-7f90dc74769a","name":"Worthington Bennis","location":"Kobyzhcha","address":"33 Old Shore Park","industryType":"Logistics"},
{"id":"e04a4750-803a-4618-b9f1-2f9bbbb958da","name":"Shurlocke Linklater","location":"Melaka","address":"86 Redwing Lane","industryType":"Logistics"},
{"id":"ad9ad92b-3792-4dea-ad99-f7c69d8908f3","name":"Kimble Gillie","location":"Washington","address":"6 Comanche Street","industryType":"Media"},
{"id":"6d4fe11c-58fd-4d7a-af1d-1e009e964abe","name":"Casey Kelledy","location":"Jistebník","address":"80 Dottie Junction","industryType":"Banking"},
{"id":"3f61a72a-65cf-4efb-8e90-8c59279509c7","name":"Penn Pearman","location":"Shagedu","address":"76 Starling Place","industryType":"Logistics"},
{"id":"429c28f3-1b53-4384-8c10-82d84bbade11","name":"Riannon Simmon","location":"Iporã","address":"5087 Oriole Trail","industryType":"Banking"},
{"id":"c83537e5-4d76-49d0-8209-84d9509bd9aa","name":"Kellyann Wallbrook","location":"San Antonio","address":"6597 Westerfield Avenue","industryType":"Logistics"},
{"id":"5d66d58f-1b00-4d40-983d-9413f71819d5","name":"Alvera Dumpleton","location":"Caromatan","address":"306 Northport Junction","industryType":"Insurance"},
{"id":"27c1a32a-9889-4e13-95c0-2adc6e927825","name":"Patrice Tuite","location":"Kalkal Barat","address":"7913 Becker Pass","industryType":"Insurance"},
{"id":"0544b784-5ede-4d85-85a3-4b03e1c72ada","name":"Edmon Proffitt","location":"Shangsha","address":"09409 North Court","industryType":"Logistics"},
{"id":"73e8e66e-fb55-40fb-9e74-059e0f220834","name":"Amalee Caustick","location":"Béthune","address":"1170 Blaine Parkway","industryType":"Logistics"},
{"id":"29986833-d063-41a6-aaee-746f1c3ceb65","name":"Bernadina Grimoldby","location":"Alcaria da Serra","address":"37 Forest Hill","industryType":"Logistics"},
{"id":"7d589f96-a30d-489c-9e5e-bd1158771b72","name":"Willard Van Halen","location":"Bus’k","address":"71 Hauk Court","industryType":"Banking"},
{"id":"efe49e94-bf5d-4e6c-84c5-ddec870759d5","name":"Sherlock Grzes","location":"Annacotty","address":"577 Cottonwood Way","industryType":"Banking"},
{"id":"a4f7d489-c4d6-4685-b15c-fba0983aecd7","name":"Peirce Rugieri","location":"Telsen","address":"68 Ruskin Lane","industryType":"Insurance"},
{"id":"ddd008e9-bed7-4cee-90b2-17a0e030346b","name":"Antonia Mistry","location":"Saint-Fargeau-Ponthierry","address":"51831 Hollow Ridge Street","industryType":"Banking"},
{"id":"d3a52b1f-d5bd-465b-b630-73627b326400","name":"Sherwin Milkin","location":"Balong","address":"45147 Ohio Street","industryType":"Retail"},
{"id":"ec067fcd-7e0a-4312-86e3-5663d0860086","name":"Stace Jaye","location":"Grujugan","address":"3 Esch Hill","industryType":"Logistics"},
{"id":"b6b357db-b831-4e60-86ce-7c3b93389c08","name":"Donny Lamprecht","location":"Kizel","address":"02931 Fair Oaks Parkway","industryType":"Media"},
{"id":"75b4a8b3-235e-4f22-b537-f93ed846c208","name":"Demetra Haye","location":"Zaoshi","address":"5207 Carey Center","industryType":"Retail"},
{"id":"df7f115a-db42-4573-8c86-031a27176719","name":"Ramonda Chiles","location":"Shuanggang","address":"6502 Kingsford Way","industryType":"Logistics"},
{"id":"a9b5c10b-a695-4e1a-887b-a8720b3a7498","name":"Robb Gerardet","location":"Jose Maria Morelos","address":"9 Burrows Center","industryType":"Logistics"},
{"id":"70b620a5-87be-4ecb-b10e-1c73bcfcf6f4","name":"Renata Cotelard","location":"Cikuya","address":"11 Armistice Park","industryType":"Logistics"},
{"id":"5bd9fe7d-eeca-43c7-a76c-11fe52daf1b0","name":"Beltran Durtnel","location":"Alue Glumpang","address":"14 Ruskin Place","industryType":"Retail"},
{"id":"6c920696-f410-4d89-b743-1092eaf9da28","name":"Catlee Bamber","location":"Yeghegnut","address":"911 Cody Lane","industryType":"Banking"},
{"id":"2f153999-0d42-4962-9122-19aaebbed0c1","name":"Lara Landsbury","location":"Parychy","address":"02 Welch Plaza","industryType":"Logistics"},
{"id":"2700ea5b-97a7-4d3d-855a-10e40d2eae59","name":"Doreen Primmer","location":"Tarimbang","address":"312 Russell Pass","industryType":"Banking"},
{"id":"41231927-95df-4fc7-b75e-7e638c61f227","name":"Enoch Giorgini","location":"Kashima","address":"65 Main Lane","industryType":"Banking"},
{"id":"57d7f2df-9c9e-4aeb-b2eb-c50fdf229557","name":"Quillan Lemasney","location":"Dashuipo","address":"70 Service Way","industryType":"Banking"},
{"id":"6c25d569-078a-485f-840c-e307691ad693","name":"Kerr Gelletly","location":"Videira","address":"01135 Pawling Trail","industryType":"Insurance"},
{"id":"a5f190e4-f3fa-4a08-a198-b702a79df3b8","name":"Glyn Tayspell","location":"Chicago","address":"09 Mallard Plaza","industryType":"Insurance"},
{"id":"55ddb6d8-20a4-4dab-851a-5d33344bb5f0","name":"Norby Dutnell","location":"Llacanora","address":"8 Crowley Park","industryType":"Logistics"},
{"id":"eb4a4570-7968-4abf-9bc3-7ff428ade03a","name":"Carin Libero","location":"Skhodnya","address":"91 Crescent Oaks Hill","industryType":"Insurance"},
{"id":"b853cdd5-3c20-4011-be7e-d3b180bf248e","name":"Sinclare Baccus","location":"Alameda","address":"034 Pawling Street","industryType":"Insurance"},
{"id":"3118b264-b768-4920-8d22-fa8bdc223e04","name":"Deck Pietruszka","location":"Bylym","address":"41 Sugar Hill","industryType":"Insurance"},
{"id":"9135cd00-5b62-4985-8699-8f9692481bce","name":"Valerye Howson","location":"Xiyuan","address":"10805 Texas Hill","industryType":"Logistics"},
{"id":"ba548f2f-adb5-4880-b4c4-85120abd7c70","name":"Caresa Sanzio","location":"Itupeva","address":"5 Reindahl Plaza","industryType":"Logistics"},
{"id":"ad1274d7-93e2-462a-bc5d-e1052eea663e","name":"Tobias Pellitt","location":"João Monlevade","address":"40 Crownhardt Avenue","industryType":"Logistics"},
{"id":"d6448368-f4fb-4142-8ded-407f220db1cd","name":"Therine Ausher","location":"Jingxiyuan","address":"038 Logan Street","industryType":"Logistics"},
{"id":"b24d1a3d-345f-44ff-a835-af1032a16d32","name":"Gerri Roberti","location":"Sacramento","address":"382 Paget Way","industryType":"Banking"},
{"id":"87ece106-1642-4d87-b4e8-9ba5855e884c","name":"Shelia Birrell","location":"Carromeu","address":"45017 Crowley Point","industryType":"Banking"},
{"id":"0e2ba59d-f01a-4a94-a7a8-3e76eeaf8d67","name":"Wadsworth Garrigan","location":"Boise","address":"42 Stone Corner Avenue","industryType":"Insurance"},
{"id":"5dd406cd-3eba-4a1e-8c79-5c03dc46a64a","name":"Brew Reyner","location":"Taoyang","address":"513 Mallard Road","industryType":"Logistics"},
{"id":"e2d05dc1-f89c-4134-b719-b503baf03196","name":"Mic Prenty","location":"Bidbid","address":"26339 Stephen Crossing","industryType":"Logistics"},
{"id":"ffc8e90d-4ab7-4997-aa90-2eff257d2f3f","name":"Dew Friese","location":"Jianshe","address":"2324 Briar Crest Center","industryType":"Banking"},
{"id":"912a7022-ba9f-421b-af8a-450bc978fd11","name":"Irina Artin","location":"Kitakami","address":"1 Morningstar Plaza","industryType":"Logistics"},
{"id":"2d6fd728-23db-4608-9662-c3f95bb1f933","name":"Perren O'Hern","location":"Baltimore","address":"034 Corben Hill","industryType":"Logistics"},
{"id":"10afa3fa-37a7-4928-bf59-b51f3d20821b","name":"Matthieu Patington","location":"Non Sung","address":"4 Roxbury Park","industryType":"Banking"},
{"id":"48d0a170-7164-4e06-8e6e-318995147ef8","name":"Brett Armit","location":"Qiaodong","address":"4 Susan Court","industryType":"Media"},
{"id":"6d1475ba-6156-47fa-8174-481e82187b97","name":"Quint Moncreiff","location":"Kuala Lumpur","address":"22 Sauthoff Trail","industryType":"Logistics"},
{"id":"17d7dc67-6503-4148-ac33-e253394e85ff","name":"Alvina Ashborn","location":"Jiangchang","address":"1 Declaration Avenue","industryType":"Logistics"},
{"id":"bd4c7c2b-fec1-4b1b-aa13-13395bd27e4d","name":"Pail Nacey","location":"Mucumpiz","address":"1 Meadow Ridge Court","industryType":"Logistics"},
{"id":"5dd404f9-2a7c-406f-8b9e-fc9fe7bff7ac","name":"Evangelin De Freitas","location":"Orahovica Donja","address":"05222 Sugar Street","industryType":"Logistics"},
{"id":"e5497266-1840-4af5-9a82-e7819a3746b4","name":"Wilt Brouncker","location":"Huangli","address":"82227 Sugar Park","industryType":"Retail"},
{"id":"a2d53b30-525a-47cd-864d-5af007638386","name":"Riane Goodsall","location":"Trieste","address":"31 Walton Center","industryType":"Insurance"},
{"id":"c8787635-6555-4795-b3fb-b2a55d645f15","name":"Byrann Haxbie","location":"Yonago","address":"669 Colorado Pass","industryType":"Banking"},
{"id":"9cfa98a5-c20f-4d6c-a965-809c0f97b964","name":"Kylen Chessell","location":"El Tejocote","address":"78 Schiller Crossing","industryType":"Logistics"},
{"id":"078dfb6f-ea6c-4d0a-92e2-3c0433163baa","name":"Konstantine Jackett","location":"Sartana","address":"98742 Maywood Park","industryType":"Logistics"},
{"id":"7c3840d4-27e2-4f82-a81e-74e124ac7c72","name":"Clary Wager","location":"Old City","address":"39939 Darwin Place","industryType":"Logistics"},
{"id":"491562f9-cf61-416d-97b5-8668838efefb","name":"Blithe Esparza","location":"Huolianpo","address":"806 Burrows Street","industryType":"Logistics"},
{"id":"0477087e-9632-4512-b6e3-2cc536cd6ce3","name":"Janey Deverille","location":"Al Qubbah","address":"0 Lake View Plaza","industryType":"Banking"},
{"id":"83258d5e-1f91-40fe-9e09-500466171cd2","name":"Freddie Dumke","location":"Wolowona","address":"54 Barby Way","industryType":"Logistics"},
{"id":"8e0280fb-83b0-4653-9d51-5c3a3ee3173f","name":"Dyann Najara","location":"Bogolyubovo","address":"51453 Grayhawk Way","industryType":"Logistics"},
{"id":"55e85aa7-1c05-448b-9406-1a65b00718b4","name":"Horten Fydoe","location":"Sapadun","address":"016 Pine View Trail","industryType":"Banking"},
{"id":"acfadbda-a83b-42c7-ad19-a79216fe5d68","name":"Dita Rymmer","location":"Iaçu","address":"21 Starling Trail","industryType":"Logistics"},
{"id":"ac1c58f8-f954-43ec-9c0d-24817c098a4c","name":"Brion Antognoni","location":"Valença","address":"3359 Valley Edge Street","industryType":"Retail"},
{"id":"df8d5d8e-d641-4472-8ae6-bc27417d2ae4","name":"Kellby Kemson","location":"Cisasak","address":"54063 Lotheville Pass","industryType":"Media"},
{"id":"915f7cd3-d1e7-4604-9648-a1b45aa0b35d","name":"Rocky Lidstone","location":"Locminé","address":"279 Ridgeway Pass","industryType":"Logistics"},
{"id":"10fda3b5-a184-4f4d-a354-7db714490042","name":"Devina O'Scanlan","location":"Anahuac","address":"908 Schurz Place","industryType":"Banking"},
{"id":"b32366a5-dc59-48eb-b4fa-6b4f4ccd7726","name":"Deck Vowells","location":"Säffle","address":"2427 Mandrake Court","industryType":"Logistics"},
{"id":"bda35be0-788d-48bc-b210-e3402965deef","name":"Kathie Grammer","location":"Tsotsin-Yurt","address":"305 Donald Crossing","industryType":"Logistics"},
{"id":"db3722e6-f91b-48a7-be0f-0b6a9f2c5d36","name":"Page Finnie","location":"Rejoyoso","address":"9136 Jenifer Crossing","industryType":"Logistics"},
{"id":"4def7c43-150c-473e-a650-9d5fd68ae1f3","name":"Barbee Salvidge","location":"Chamlykskaya","address":"5 Waywood Parkway","industryType":"Logistics"},
{"id":"8478c195-c8c2-4a30-a0a5-d391db0e1495","name":"Bonny Bezarra","location":"San Andros","address":"4681 Maple Wood Court","industryType":"Logistics"},
{"id":"1c803f33-f450-4a67-8c09-59b77dc80832","name":"Courtenay Southernwood","location":"Ziliang","address":"62 Hanson Plaza","industryType":"Logistics"},
{"id":"525b0773-218a-4abd-be59-2ed333bf4835","name":"Elly Birkmyre","location":"Babantar","address":"001 Debra Plaza","industryType":"Banking"},
{"id":"fc87409c-d8c4-4a41-97ec-b599b128a002","name":"Arnaldo Doale","location":"Beixin","address":"223 Daystar Crossing","industryType":"Banking"},
{"id":"a54a0d83-6308-4ba1-8e46-c18bea044440","name":"Rosalie Bayfield","location":"Dykan’ka","address":"0 Parkside Way","industryType":"Banking"},
{"id":"2e270d8b-250d-408e-aa77-38305a86740a","name":"Jimmy Prichard","location":"Shanhou","address":"4 West Alley","industryType":"Media"},
{"id":"0ab27444-4dee-46f4-b955-f76c1803b355","name":"Iorgos Kornacki","location":"Jinjiang","address":"3747 Crest Line Hill","industryType":"Logistics"},
{"id":"6ad5ffa9-2b45-45ed-a9f9-8a7ca219a65f","name":"Stanislaus Godber","location":"Hamburg Harvestehude","address":"681 Marquette Way","industryType":"Media"},
{"id":"1d55aaed-efd5-4897-89c6-07e02ec27adc","name":"Janek todor","location":"Wien","address":"63 Elka Way","industryType":"Retail"},
{"id":"a28b97ae-81ab-4a8c-91e2-0b7b5d433afa","name":"Tildi Rosenschein","location":"Princeville","address":"602 Chinook Avenue","industryType":"Banking"},
{"id":"497e9627-99d0-458e-a197-78cf52204376","name":"Donn Duker","location":"Dayushu","address":"073 Sachtjen Drive","industryType":"Insurance"},
{"id":"4749cde4-af58-4335-95d7-1e24d464456b","name":"Adaline Dragoe","location":"Cần Giờ","address":"59 Towne Road","industryType":"Logistics"},
{"id":"695080e9-06ea-4dd1-8dfe-2db913871706","name":"Allegra Breckenridge","location":"Postoloprty","address":"35 Declaration Place","industryType":"Logistics"},
{"id":"726a9208-e52f-4975-82ba-2ba24724ac3c","name":"Mariam Rickell","location":"Kalnibolotskaya","address":"984 Chinook Circle","industryType":"Banking"},
{"id":"cfc78f94-7aa3-4228-9498-19fbfe51078e","name":"Rosmunda Pepon","location":"Diapaga","address":"6 Hoard Crossing","industryType":"Logistics"},
{"id":"2c6b6fa6-dbb2-4f2c-97f9-8851355e1035","name":"Mariele Edginton","location":"Baiqi","address":"94 Acker Drive","industryType":"Logistics"},
{"id":"ea9c3d47-a979-42d5-b99b-896240e1a7da","name":"Loria Franzetti","location":"Marau","address":"740 Birchwood Center","industryType":"Banking"},
{"id":"8ff88ca4-d4c5-4be9-a6e2-e9e77695686a","name":"Jeniece Linny","location":"Aikmel","address":"85683 Shopko Court","industryType":"Logistics"},
{"id":"6fab5385-3faf-419e-945a-c89eb4d444c5","name":"Roxanne Avann","location":"Saint John’s","address":"76885 Independence Park","industryType":"Banking"},
{"id":"eac7f448-b6fa-4bad-ba8c-eb42c787a0fa","name":"Idelle Robottom","location":"Jackson","address":"0361 Scott Road","industryType":"Logistics"},
{"id":"d7dc206f-9683-4992-a9b0-56b219bac34a","name":"Shaughn Cane","location":"Dongzaogang","address":"2998 Florence Drive","industryType":"Media"},
{"id":"f03fb907-2bb3-4edd-826b-01634263e2e0","name":"Nananne Easson","location":"Agbannawag","address":"20 Towne Trail","industryType":"Insurance"},
{"id":"c6536a05-ab9f-4dca-b965-734d434df7e2","name":"Kelley Ellacott","location":"Крушопек","address":"351 Northwestern Center","industryType":"Retail"},
{"id":"c92c4a00-a31a-4a71-896c-388c78a1acac","name":"Quintus Beneze","location":"Kanbula","address":"22133 Donald Park","industryType":"Banking"},
{"id":"5bb12109-f1d8-4a57-ae36-8af5c7feefb7","name":"Charline Pikesley","location":"Dhrosiá","address":"95 Kings Drive","industryType":"Logistics"},
{"id":"5df867b1-db14-4682-bd29-e8fe3a685063","name":"Nanice De Freyne","location":"Colombo","address":"710 Nobel Parkway","industryType":"Insurance"},
{"id":"a1e426a0-4c39-410a-b922-1528124e1dc2","name":"Carly Crosser","location":"Itzig","address":"5 Vera Hill","industryType":"Logistics"},
{"id":"16e4ef1d-2069-4f63-b7fa-28d05b0b3c55","name":"Leticia Chapman","location":"Klimavichy","address":"4 Bluejay Point","industryType":"Banking"},
{"id":"0dd932d6-01e0-4e04-9bc3-d29802ea7eca","name":"Luciano Eye","location":"La Jicaral","address":"07765 Almo Parkway","industryType":"Insurance"},
{"id":"f546ca89-e6b3-4213-8d18-c737f6b6e746","name":"Korrie Tedridge","location":"Chama","address":"92 Roxbury Terrace","industryType":"Logistics"},
{"id":"82e4cd2b-33f8-4c61-a374-03cd092a3af7","name":"Carmel Gaythorpe","location":"Várzea Paulista","address":"744 Dawn Park","industryType":"Logistics"},
{"id":"2f1c47e6-0e33-466a-a1bb-6db599c96b61","name":"Tiffany Gabriel","location":"Haarlem","address":"789 Dennis Terrace","industryType":"Insurance"},
{"id":"daccb382-cfe4-4a8e-af82-5313d7bd90a1","name":"Vernor Markova","location":"Beolgyo","address":"25 Stang Pass","industryType":"Insurance"},
{"id":"7050815c-27ec-4b43-9cbd-e356b356eebd","name":"Sarine Granleese","location":"Châteaudun","address":"03 Muir Alley","industryType":"Logistics"},
{"id":"f5490602-9ffa-4b99-9027-44eb53c4fdbf","name":"Pearline Rabier","location":"Ust’-Isha","address":"5978 Moulton Junction","industryType":"Retail"},
{"id":"eb2483cb-2d5c-4ba7-b969-f66afaa2f718","name":"Mia Robecon","location":"Eira Nova","address":"266 Mitchell Drive","industryType":"Logistics"},
{"id":"45ac3a50-16f2-463a-858a-70492dfddf9f","name":"Lottie Truman","location":"Ciudad Arce","address":"7884 Nova Way","industryType":"Insurance"},
{"id":"25077c0f-0e6e-4abd-b36a-8e01351140bd","name":"Ron Cartmael","location":"Fengle","address":"32 Oriole Way","industryType":"Media"},
{"id":"7d8d723c-6da4-492c-aa0a-e8d2f1bc3875","name":"Marget Cruickshanks","location":"Taremskoye","address":"4 Ruskin Trail","industryType":"Logistics"},
{"id":"8e1b3cc6-507e-4d61-b4a3-2971be978ff0","name":"Tommie Gowar","location":"Bumirejo","address":"5187 Merry Avenue","industryType":"Media"},
{"id":"838ee772-40e7-48f3-bb22-6f7a7c2802d9","name":"Corena Merritt","location":"Bentengjawa","address":"33704 Anniversary Crossing","industryType":"Insurance"},
{"id":"036b0c08-6ef2-4d5f-b309-a2119b8dd9dd","name":"Dalton McCerery","location":"Yag La","address":"84 Longview Junction","industryType":"Media"},
{"id":"c2549462-f424-43f6-894a-0e90c79fd854","name":"Read Livick","location":"Liuli","address":"474 Merry Lane","industryType":"Logistics"},
{"id":"a392506a-dcdd-4a20-bad8-9af8bab54f3c","name":"Gloriane Rack","location":"Chojnów","address":"442 Nova Center","industryType":"Media"},
{"id":"b9354e0b-5e73-4c1d-94d5-121e7b81d96b","name":"Frannie Snel","location":"Basiong","address":"9173 Sunbrook Terrace","industryType":"Media"},
{"id":"71d65105-f079-478c-98b3-3a217edc21df","name":"Keslie Catterill","location":"Udanin","address":"39912 West Parkway","industryType":"Insurance"},
{"id":"0d43bab5-d6f5-47fa-ae88-f2bbff4e3d9f","name":"Salomone Benny","location":"Stod","address":"7 Burning Wood Place","industryType":"Banking"},
{"id":"28d4881f-982b-4012-a314-6d3c4c3631c8","name":"Kyle Tottie","location":"La Roche-sur-Yon","address":"99440 Anhalt Plaza","industryType":"Retail"},
{"id":"fe6fe60d-df05-4de7-b0be-cb95cc064fb6","name":"Cirillo Aysik","location":"Palmasola","address":"31 Mockingbird Parkway","industryType":"Insurance"},
{"id":"318df2dc-23fa-417b-9477-281186e7bdb8","name":"Harman Appleton","location":"Kropotkin","address":"93601 Susan Junction","industryType":"Insurance"},
{"id":"1d2f2e58-bbcc-4842-8144-49cf7f75bc9a","name":"Drusie Ruggs","location":"Socabaya","address":"249 Mesta Court","industryType":"Logistics"},
{"id":"1980b560-a710-4701-acdf-563da6ba8bdd","name":"Elke Daffern","location":"Motala","address":"06 Eagle Crest Road","industryType":"Banking"},
{"id":"26d2844b-5129-4f86-b55e-42d0592c468a","name":"Monah Skipper","location":"Yangsan","address":"6 Vera Terrace","industryType":"Logistics"},
{"id":"d6ca4e01-53b3-4dfb-9aca-950491df01c0","name":"Inna Gorvette","location":"Ekou","address":"9310 Mendota Park","industryType":"Insurance"},
{"id":"a81cd9b4-5a77-4bd2-a45b-2d765b29710d","name":"Rosalia Youtead","location":"Strängnäs","address":"6 Arkansas Lane","industryType":"Logistics"},
{"id":"be721c1c-7bc9-49a5-be7e-131366c29f58","name":"Rubi Barehead","location":"Billère","address":"01 Granby Crossing","industryType":"Insurance"},
{"id":"e4d01599-2d7c-4ed1-a7f0-8134e0850c27","name":"Shurlocke Bayston","location":"Boulemane","address":"943 Homewood Point","industryType":"Banking"},
{"id":"ede077bd-24f0-40b7-8d8c-596f53de57db","name":"Scarlet Dankov","location":"Santa Elena","address":"115 Dayton Avenue","industryType":"Logistics"},
{"id":"a2c532a9-b7fb-408c-a99a-d40a590c224e","name":"Serge Page","location":"Huangjiazhai","address":"7 Florence Court","industryType":"Logistics"},
{"id":"9085a9a7-09bd-438d-84b9-b72945f34e8b","name":"Harlen Harefoot","location":"Kislyakovskaya","address":"43523 Judy Terrace","industryType":"Insurance"},
{"id":"fec1baaf-9961-48ba-b00a-635bce32c8d5","name":"Dorene Degue","location":"Jinbo","address":"8720 Erie Crossing","industryType":"Insurance"},
{"id":"e9f80e8c-ef72-4498-b838-30a454ef3bcb","name":"Karel Anders","location":"Oumiao","address":"873 Sunnyside Street","industryType":"Insurance"},
{"id":"349aad94-878a-4aee-9a36-24fb72d68135","name":"Taite Petegree","location":"Zhencheng","address":"0 Artisan Circle","industryType":"Insurance"},
{"id":"bf1d3a37-d3aa-4e84-ad64-028c0d5d0511","name":"Maxi Gawthrop","location":"Huangzhai","address":"682 Sutherland Park","industryType":"Logistics"},
{"id":"e5181404-c0ff-45c3-9815-f64f088ff031","name":"Pace Millimoe","location":"Datong","address":"29059 Esch Court","industryType":"Insurance"},
{"id":"ee506c16-8f31-4f69-82f0-defbe3c3c6f2","name":"Jody Clamp","location":"Shanghudi","address":"89 Carioca Terrace","industryType":"Banking"},
{"id":"448978fc-a067-41bf-a864-1218c79284d0","name":"Farah Berkery","location":"Manoc-Manoc","address":"2 Melody Road","industryType":"Insurance"},
{"id":"d900914e-7125-4ebe-9dbc-0f38e1c6ff14","name":"De witt Cremins","location":"Woro","address":"969 Saint Paul Avenue","industryType":"Banking"},
{"id":"aa4c7d74-0e17-45bd-845f-97cb3ef4caf1","name":"Alfonse Earngy","location":"Sintung Timur","address":"9599 Norway Maple Place","industryType":"Banking"},
{"id":"17a99b1d-bfeb-4748-a25b-da84ba9f8bb6","name":"Gregorio Scothron","location":"Obuasi","address":"9 Kingsford Center","industryType":"Logistics"},
{"id":"c79639c4-83ab-4842-8e11-6a4095246cf9","name":"Olympie Stockwell","location":"Argungu","address":"4897 Ridgeview Point","industryType":"Insurance"},
{"id":"4b4081dc-c1c6-4b45-9452-33bcf4ec12bb","name":"Tedie Maxsted","location":"Higuerote","address":"5 Merry Trail","industryType":"Logistics"},
{"id":"516d1153-9b96-418f-abaa-840bd3ba6a33","name":"Barris Phethean","location":"Charenton-le-Pont","address":"3 Eastwood Pass","industryType":"Logistics"},
{"id":"3307db33-da12-4050-be0f-936a56e89015","name":"Brade Wong","location":"Kajiki","address":"8962 Shoshone Junction","industryType":"Insurance"},
{"id":"538eb04b-005c-437f-9812-9a0618751e5f","name":"Ezequiel Ellwood","location":"Pirané","address":"34510 Blackbird Lane","industryType":"Insurance"},
{"id":"ab14e897-4656-484c-bd33-2481d92900a0","name":"Domeniga Jaffra","location":"Sambirobyong","address":"4682 Northport Parkway","industryType":"Insurance"},
{"id":"fe9c172d-a2fc-4dc3-9302-2314888d8c21","name":"Rhody Satcher","location":"Milotice","address":"2 Golf Course Trail","industryType":"Logistics"},
{"id":"b56bf453-d797-4893-9292-a30aecd9cd84","name":"Corena Seth","location":"Hila","address":"02 Scoville Center","industryType":"Banking"},
{"id":"efea4256-bfd7-4bee-9969-597a2a7d9f03","name":"Robbert Denyukhin","location":"Rautjärvi","address":"8 Garrison Pass","industryType":"Logistics"},
{"id":"073e576f-f1b4-49a9-9160-a45e68f25cf1","name":"Angele Ivel","location":"Qikeshu","address":"79 Rigney Way","industryType":"Logistics"},
{"id":"960d1475-1d9f-4287-9fba-f3ca3fff7bc7","name":"Tish Lantiffe","location":"Rivne","address":"5071 Westport Parkway","industryType":"Banking"},
{"id":"965c4edc-ec2e-44bb-ae85-16ee2130bc31","name":"Trescha Kaman","location":"Lingbei","address":"46147 Vernon Trail","industryType":"Banking"},
{"id":"70ecb996-53c8-4873-8536-5d312290f861","name":"Siouxie Gamlen","location":"Puteaux","address":"45598 Wayridge Trail","industryType":"Logistics"},
{"id":"485bd1b0-06dd-48df-966b-426ea0c67a0e","name":"Nappy Hainey","location":"Mangulile","address":"02 Chive Road","industryType":"Logistics"},
{"id":"6c7f17dd-55f0-4408-81ea-cf84f216952f","name":"Ryann Hundall","location":"Nianqiao","address":"61 Anhalt Pass","industryType":"Banking"},
{"id":"45b8da64-f0ad-415b-9362-00fafa6d491f","name":"Bennie Beacock","location":"Tangxian","address":"7425 Randy Place","industryType":"Banking"},
{"id":"f67c2625-7024-4199-aee9-14ceeef28f08","name":"Janessa Neame","location":"Sidaohezi","address":"9 Amoth Junction","industryType":"Banking"},
{"id":"2f93fe56-98ab-46e3-8626-f41f154eb861","name":"Clifford Dutton","location":"Longquan","address":"3 Michigan Junction","industryType":"Logistics"},
{"id":"7d6af59a-5c84-4a36-9458-1dcc85db7d80","name":"Quinta Steere","location":"Cawayan Bugtong","address":"99 Petterle Parkway","industryType":"Retail"},
{"id":"757fc052-3be1-4100-9418-cdc5050928d3","name":"Mehetabel Sedgemond","location":"Emiliano Zapata","address":"2 Cambridge Court","industryType":"Insurance"},
{"id":"0d60b2e0-9b18-4619-ab54-b20d82ba04f5","name":"Aggi Hardinge","location":"Krivodanovka","address":"53581 Nova Circle","industryType":"Banking"},
{"id":"d1d86662-d3aa-4c16-8088-7ea7a172c588","name":"Kelly Phythien","location":"Saint-Augustin","address":"5690 Upham Terrace","industryType":"Banking"},
{"id":"76d035c5-d65c-4eaa-8e2a-0a1f6a461d4c","name":"Maury Sever","location":"Kaliwates","address":"8746 Meadow Valley Pass","industryType":"Logistics"},
{"id":"8a0219cb-cd74-4ce0-aa63-f46c65184c4d","name":"Yoko Ilyunin","location":"Järfälla","address":"2082 Cherokee Point","industryType":"Banking"},
{"id":"eda6046d-1e5c-4eb4-8491-1741a4f553a1","name":"Eleanore Mingasson","location":"Mauloo","address":"359 Eastlawn Junction","industryType":"Banking"},
{"id":"d29e6a05-7b31-450a-94c3-989d60a0bc18","name":"Corey Mylchreest","location":"Bembèrèkè","address":"92878 Transport Court","industryType":"Banking"},
{"id":"6bcd79a7-7b73-4f09-9189-57db3be02dfb","name":"Evelin Blanchette","location":"Villavicencio","address":"3055 Holy Cross Hill","industryType":"Banking"},
{"id":"634b564e-15a5-4753-b7ce-bc7d16c07818","name":"Robina Aizikowitz","location":"Jiangpu","address":"602 Knutson Crossing","industryType":"Banking"},
{"id":"80533cfc-e413-4a1b-a0e5-c037d29da931","name":"Florian Rawles","location":"Oravais","address":"52668 Mcguire Parkway","industryType":"Banking"},
{"id":"7153b873-6ae8-4c0f-8e0a-527fd7925b31","name":"Rudd Corbet","location":"Betaf","address":"52579 Hallows Parkway","industryType":"Logistics"},
{"id":"37ed5df5-e3c4-41a5-bb90-2fe72d4000fd","name":"Trescha Belbin","location":"Phra Phutthabat","address":"031 Marquette Street","industryType":"Insurance"},
{"id":"98b73464-a642-4fcf-8eb0-23e8b8a51a58","name":"Rosette Chelsom","location":"Antanhol","address":"21881 Valley Edge Road","industryType":"Retail"},
{"id":"eea1b5ee-7d17-4658-9f27-6a2e352ea1bc","name":"Cordula Casserly","location":"Yamango","address":"460 Arrowood Pass","industryType":"Logistics"},
{"id":"12492cc2-8501-49bd-9a4b-cb520a92688f","name":"Charlton Chenery","location":"Maojiadian","address":"84 Larry Avenue","industryType":"Logistics"},
{"id":"817bb30c-c52e-4ff8-941b-fa50d8e64092","name":"Abdel Leftridge","location":"Malusac","address":"351 Namekagon Plaza","industryType":"Banking"},
{"id":"0b8ddb63-bfb7-4073-9a9a-5c930d98f9bd","name":"Garrard Heliar","location":"San Jerónimo","address":"3 Golf View Junction","industryType":"Logistics"},
{"id":"d3f5d5da-9817-43f1-8ac0-1b004f2c86e8","name":"Cecilio Sleightholme","location":"Wu’erqihan","address":"2614 Bayside Parkway","industryType":"Banking"},
{"id":"42a64cc7-e555-4162-a6ca-c11d6c395efd","name":"Tiphanie Sheldon","location":"Nida","address":"44155 Logan Drive","industryType":"Logistics"},
{"id":"c03b4692-aaf8-4f3d-8965-a664e074829f","name":"Danie Newcom","location":"La Fortuna","address":"97 Green Drive","industryType":"Insurance"},
{"id":"e5e20dfb-bf1b-4b34-8b39-9ca5c22b18c5","name":"Rona Aylett","location":"San Rafael","address":"6484 Lighthouse Bay Drive","industryType":"Banking"},
{"id":"9361f146-1b99-44f1-8aae-4a70c1d8d608","name":"Ford Heinz","location":"Andilamena","address":"6922 Fisk Drive","industryType":"Banking"},
{"id":"3dd06963-4772-4081-830f-fd29d91bb8c8","name":"Mabel Pitcaithly","location":"Youzha","address":"158 Bellgrove Court","industryType":"Logistics"},
{"id":"f6a1c2ee-de6c-454b-b596-0a592e7c23f4","name":"Parry Tomczak","location":"Radomin","address":"6 Morningstar Plaza","industryType":"Banking"},
{"id":"ec334054-f1e7-4408-8a86-679c1cc535ca","name":"Nollie Shepherdson","location":"Xilai","address":"4 Coleman Alley","industryType":"Insurance"},
{"id":"b4b02afb-e1d3-4263-8dae-176b17d69fb0","name":"Korey Bellenger","location":"Isfara","address":"696 Vidon Plaza","industryType":"Media"},
{"id":"e0fbcea8-d8a2-4ce6-b5bd-2a514d14d9d6","name":"Justinian Dainton","location":"Mahaplag","address":"6753 Rigney Street","industryType":"Logistics"},
{"id":"80ca3748-6ff2-4891-9a7d-22c9d68682f7","name":"Olav Queyeiro","location":"Balatun","address":"75 Sycamore Alley","industryType":"Retail"},
{"id":"1ee8f6d6-b17c-412f-9174-7f9296d988b8","name":"Janeen McKague","location":"San José","address":"762 Hovde Trail","industryType":"Logistics"},
{"id":"25db270e-e679-455b-9a42-3c2607fe0a56","name":"Derrik Pitfield","location":"Huangshi","address":"16 Sunnyside Lane","industryType":"Logistics"},
{"id":"ba9881bc-38ea-4dfe-b341-b6d5ee4799ca","name":"Carolee Duigenan","location":"Novonikol’sk","address":"6 Sunnyside Plaza","industryType":"Logistics"},
{"id":"503e5d30-0710-4416-9001-7056a4f02d0a","name":"Bridgette Schulkins","location":"Hägersten","address":"4896 Rigney Center","industryType":"Media"},
{"id":"d2854097-b2ac-4dcd-b15c-d9d8108466c1","name":"Osborne Fearey","location":"Toksovo","address":"382 Bobwhite Plaza","industryType":"Logistics"},
{"id":"e1f2a7bb-474a-4683-9158-575f1d061684","name":"Jeannette Ruddiforth","location":"Qinglong","address":"638 Crescent Oaks Terrace","industryType":"Logistics"},
{"id":"c982ebc3-86f3-49ac-a690-671384aebd67","name":"Sonya Schaben","location":"Haputale","address":"2 Eastlawn Plaza","industryType":"Media"},
{"id":"4cf4e005-8d1f-4126-94c9-8922ba779ea2","name":"Philippine Haldin","location":"Taguing","address":"8 Algoma Center","industryType":"Insurance"},
{"id":"4325ced9-4159-424e-b1b0-141c80824170","name":"Irving Olrenshaw","location":"Sulang Tengah","address":"4 Hoffman Center","industryType":"Logistics"},
{"id":"ea309d7f-89f0-4a01-8d70-9bbd3128fa17","name":"Anton Antczak","location":"Medicine Hat","address":"4330 Village Alley","industryType":"Banking"},
{"id":"667d91c7-9def-4aae-a4f4-fc0136e1af15","name":"Ikey Elfleet","location":"Manique de Baixo","address":"4173 Melvin Parkway","industryType":"Logistics"},
{"id":"27ddaa05-532b-4db0-a0dc-ca88396eda66","name":"Noel Cleugh","location":"Mîndreşti","address":"0 Eggendart Park","industryType":"Insurance"},
{"id":"e66ce80e-ce31-4eb6-94d8-21b8e12c00a5","name":"Bidget Gauler","location":"Onueke","address":"36 Scott Hill","industryType":"Banking"},
{"id":"bbcaf17a-1b8d-4e36-ad67-d18d6a66fcf8","name":"Rora Gillbey","location":"Gyumri","address":"65554 Vera Terrace","industryType":"Logistics"},
{"id":"fab2dcf5-7b08-430b-aa14-5007605f52ed","name":"Silvia Skocroft","location":"Sholokhove","address":"5987 Hoffman Terrace","industryType":"Banking"},
{"id":"9a4805b1-f3e2-45b2-86c2-de2307e5095c","name":"Keri Poultney","location":"Duowa","address":"5 Talisman Crossing","industryType":"Insurance"},
{"id":"6f04f8cb-0753-464e-94ba-d9ba2512ac49","name":"Aldus Iley","location":"Trélazé","address":"5 Fordem Road","industryType":"Retail"},
{"id":"5b24b3c4-1eda-434c-a000-dea10769ca3c","name":"Coralie Gayther","location":"Huai Mek","address":"76 Old Shore Hill","industryType":"Retail"},
{"id":"9a162c9a-f007-4793-8519-b56dcf95409b","name":"Ximenez Roostan","location":"Quinta da Courela","address":"9 Gerald Pass","industryType":"Banking"},
{"id":"eaa107b4-4588-4aa8-82f6-6979457debe4","name":"Daisie Barnshaw","location":"Nila Dua","address":"5760 Pennsylvania Street","industryType":"Media"},
{"id":"f20fb0c3-a1e6-4324-9a1d-d0b7f7577845","name":"Claudine Bernholt","location":"Gryfino","address":"2545 Hudson Trail","industryType":"Media"},
{"id":"389fa6df-df0d-4caa-b132-ce269a1effc8","name":"Nikki Urwin","location":"Lindian","address":"99335 Bashford Drive","industryType":"Banking"},
{"id":"eec92dd9-0469-4431-8b67-335b89c19646","name":"Kayla Talloe","location":"Santa Maria","address":"986 Hudson Lane","industryType":"Banking"},
{"id":"dabefba7-e166-4e7d-8e93-364fbbbf8b09","name":"Gaby Czaja","location":"Karangarjo","address":"3342 West Park","industryType":"Insurance"},
{"id":"388cf020-c9f6-4fc6-9a72-b4545e5f2259","name":"Deeann Tapner","location":"Sadao","address":"8 Bowman Trail","industryType":"Banking"},
{"id":"07b10249-b5ec-415e-b153-379356f2afd2","name":"Ethyl Piotrkowski","location":"Guangshan Chengguanzhen","address":"29 Scoville Center","industryType":"Logistics"},
{"id":"629b64e5-8491-4881-8396-2e7e578d83d6","name":"Konstantine McWhannel","location":"Fria","address":"425 Declaration Alley","industryType":"Retail"},
{"id":"cc1636ec-50ba-42e9-9b1f-ce978b43c5ea","name":"Avivah Atchly","location":"Kampong Cham","address":"8442 Barby Pass","industryType":"Logistics"},
{"id":"28c85922-9a34-493a-af99-93ebe21464f5","name":"Saunderson Biglin","location":"Daguo","address":"99994 Hermina Center","industryType":"Media"},
{"id":"c3b52404-4805-43a2-a74f-59271f388479","name":"Alexandrina Guest","location":"Conceição da Barra","address":"9306 Northfield Park","industryType":"Banking"},
{"id":"be773c1a-6384-4823-9480-9f5ca4e06a19","name":"Colleen Bownass","location":"Lutou","address":"54 Thompson Road","industryType":"Logistics"},
{"id":"31f1fa53-a927-48f9-8155-e57e095e886b","name":"Elia Balcon","location":"Daba","address":"9348 Dennis Center","industryType":"Logistics"},
{"id":"59b2b6b7-6af3-46bc-a1ea-7df8354fa965","name":"Skyler Coster","location":"Belisario Dominguez","address":"7245 Knutson Place","industryType":"Insurance"},
{"id":"8a914db2-cfea-4fae-8ef5-f53d75e7497c","name":"Glynn Pitchford","location":"Mora","address":"09947 Armistice Pass","industryType":"Logistics"},
{"id":"4f861801-cf3c-4ed7-a87d-eca3dc0f2837","name":"Ganny Shallcross","location":"Majia","address":"7392 Morningstar Junction","industryType":"Banking"},
{"id":"01bdba64-e43d-4aa7-8111-1fc0c652f597","name":"Husein Forth","location":"Kičevo","address":"838 Carey Plaza","industryType":"Insurance"},
{"id":"9f0c1586-e9e2-432f-a391-c59de8c25deb","name":"Heddi Sinkin","location":"Липково","address":"9 Fisk Plaza","industryType":"Insurance"},
{"id":"6141870a-098a-48d4-94b1-1878f61f63c4","name":"Ravi Sein","location":"Pristina","address":"65306 Dawn Center","industryType":"Banking"},
{"id":"53af8034-16e3-457a-8a48-710f7f481da2","name":"Wandie Raylton","location":"Berekum","address":"177 Cherokee Way","industryType":"Insurance"},
{"id":"4ba9deb4-005f-4751-a250-5b2a4d4954a7","name":"Lonni Kermit","location":"Abades","address":"474 Vidon Pass","industryType":"Banking"},
{"id":"56797181-b38a-4ac0-a21c-379a73bb6b3a","name":"Mandy Tuke","location":"Spas-Zaulok","address":"8748 Grover Court","industryType":"Banking"},
{"id":"bcd3210b-8f83-4710-84fa-181dde60944d","name":"Helenka Brims","location":"Primorsko-Akhtarsk","address":"4905 Brown Drive","industryType":"Logistics"},
{"id":"086ddeb5-6d1b-4861-aeef-0526c355eb2c","name":"Hildagard Lympany","location":"Mangaldan","address":"542 Kipling Pass","industryType":"Logistics"},
{"id":"df3ae728-4429-4eb9-81a8-d40f12c49f51","name":"Caryl Carrane","location":"Nice","address":"7800 Farmco Junction","industryType":"Insurance"},
{"id":"58ffe431-f07f-4e11-ac64-fcfe9369e146","name":"Gerri Kynaston","location":"El Perico","address":"3 Homewood Court","industryType":"Banking"},
{"id":"8184bf2c-663a-45c5-898c-bd72ee47e355","name":"Jewelle Varlow","location":"Yelwa","address":"61526 Farwell Alley","industryType":"Retail"},
{"id":"4476ff6f-eb1d-4227-9241-aa08fb6c2736","name":"Fonz Yushankin","location":"Yanhu","address":"5609 Bowman Court","industryType":"Banking"},
{"id":"0da0df90-2fa5-45e0-a54b-1c47c3750acc","name":"Donn Volante","location":"Solomenskoye","address":"5553 Michigan Place","industryType":"Banking"},
{"id":"91a8a13a-78bb-4f54-ab0d-99799f21afb1","name":"Sylas Gribben","location":"Noailles","address":"66 Warrior Way","industryType":"Logistics"},
{"id":"9635e395-9957-40e7-921f-73d44325f80b","name":"Prudi Abendroth","location":"Manticao","address":"8170 Northfield Street","industryType":"Logistics"},
{"id":"85757e8f-494e-4509-ade3-9052cb9b86b1","name":"Hube Allward","location":"Prakhon Chai","address":"8 Tennyson Place","industryType":"Logistics"},
{"id":"22051857-76f6-43a6-82c6-2d683603dccb","name":"Charlot Kilkenny","location":"Bergen","address":"59588 Hooker Avenue","industryType":"Logistics"},
{"id":"2d05de74-d5f4-44e4-8140-5d7a16ab68a1","name":"Slade Flexman","location":"Hekou","address":"4207 Drewry Parkway","industryType":"Retail"},
{"id":"d243d1f9-86db-4510-aab8-664e87d71ee8","name":"Xymenes Rushworth","location":"Gaozhai","address":"56374 Southridge Drive","industryType":"Logistics"},
{"id":"efd58adc-c120-4eba-99f6-bfcf193b716e","name":"Johny Landall","location":"Ulset","address":"730 Rieder Alley","industryType":"Media"},
{"id":"c9b0be13-4e6e-4d8e-ba8b-ff7f706f60f9","name":"Pat Withrington","location":"Ōbu","address":"23265 4th Terrace","industryType":"Logistics"},
{"id":"712c03d0-5a33-44b8-a9d0-e686590c5e5e","name":"Tully Bassom","location":"São Gabriel","address":"71742 Pennsylvania Pass","industryType":"Logistics"},
{"id":"ec129067-e2a7-45c6-8688-ac0987a7abb1","name":"Marijo Rutherfoord","location":"Al Jabīn","address":"697 Mallory Way","industryType":"Logistics"},
{"id":"fc5405b5-bceb-4a0d-a780-c876676d37a0","name":"Tessa Izkovici","location":"Xiaolong","address":"102 Springs Lane","industryType":"Logistics"},
{"id":"f3a78aee-d099-4873-a1ad-c5c8b6f4f1c2","name":"Noami Yuill","location":"Minas de Marcona","address":"606 Lyons Point","industryType":"Banking"},
{"id":"b61ff8a8-0337-46b9-91ac-a64249115bdc","name":"Fidole Reinhardt","location":"Ciechanów","address":"29 Orin Pass","industryType":"Banking"},
{"id":"fa1723a6-152e-40e7-88b7-8265da74e960","name":"Tye Ganforth","location":"Lhuentse","address":"1 Fair Oaks Avenue","industryType":"Banking"},
{"id":"f1c83e15-762d-41b7-816c-2fde642113ce","name":"Staford Lunt","location":"Netvořice","address":"72 Porter Court","industryType":"Logistics"},
{"id":"90ec250a-0c39-4eaa-ac46-449d54097dcb","name":"Paco Esmonde","location":"Xinying","address":"87 Colorado Street","industryType":"Media"},
{"id":"7874769f-f71c-4bf7-8ffc-c83c0368a192","name":"Murry Kealy","location":"Qabaqçöl","address":"221 Scofield Drive","industryType":"Logistics"},
{"id":"4b52cd3a-2aad-43e0-a0b5-0023bf14ecf7","name":"Isidoro Cicccitti","location":"Ban Fang","address":"23881 Kinsman Crossing","industryType":"Banking"},
{"id":"98004297-5dd9-483c-98c8-66aa1ab4cbda","name":"Ki Berrington","location":"Phôngsali","address":"89 Vermont Parkway","industryType":"Logistics"},
{"id":"e21a71de-b69c-4a65-b706-e07d2bc28475","name":"Ameline Piscopo","location":"Romanovo","address":"62216 Crescent Oaks Drive","industryType":"Banking"},
{"id":"d295c404-51be-4f7b-bfb8-8890984d4f5d","name":"Martainn Duddin","location":"Sieroszewice","address":"80629 Mosinee Place","industryType":"Logistics"},
{"id":"ded77222-e714-4ff6-a46d-b2e4ae7c976f","name":"Adler Bocock","location":"Cherbourg-Octeville","address":"4 Eagle Crest Drive","industryType":"Logistics"},
{"id":"a7ca238d-b334-47db-8276-bb32ab990f58","name":"Thomasina Foyston","location":"Mutang","address":"8557 Sommers Terrace","industryType":"Insurance"},
{"id":"8a8b226b-e6ab-4b40-87a1-cd3974e2f43e","name":"Chancey Ivanusyev","location":"Cimrutu","address":"7373 Gulseth Trail","industryType":"Logistics"},
{"id":"50146deb-bf1c-4062-8ba4-6df162b76919","name":"Daffie Maughan","location":"Bangeran","address":"86 Schurz Road","industryType":"Insurance"},
{"id":"6b57810a-d136-434e-927c-f1abed62790e","name":"Robbyn Tunny","location":"Washington","address":"3299 Ruskin Street","industryType":"Banking"},
{"id":"1fc1f238-2200-43f2-9541-9d96f46890fc","name":"Rab Rugg","location":"Severka","address":"75 Hoffman Street","industryType":"Logistics"},
{"id":"149744a6-4129-402e-a7bf-52400b342c7c","name":"Sydney Pruvost","location":"Fezna","address":"471 Little Fleur Terrace","industryType":"Banking"},
{"id":"2218c739-c296-407a-820c-af6405ada663","name":"Zora Quartermain","location":"Tianhe","address":"59 Little Fleur Alley","industryType":"Insurance"},
{"id":"07d39ed9-0cac-4ba1-9deb-501cb1a84da3","name":"Donni Casaccio","location":"Saga-shi","address":"79293 Darwin Pass","industryType":"Insurance"},
{"id":"27855355-1cac-4b67-acde-25ebdd61e5f5","name":"Morena McCritchie","location":"Gaizhou","address":"3393 Corscot Way","industryType":"Logistics"},
{"id":"f8eac16a-b5ca-4e65-95c4-882e013a228f","name":"Brannon Emblem","location":"Stalbe","address":"3460 West Street","industryType":"Banking"},
{"id":"a66f1101-3c83-4270-b741-2435f3aba950","name":"Mari Culham","location":"Batusangkar","address":"796 Sloan Street","industryType":"Banking"},
{"id":"91005978-7738-4423-ab4b-eab8c1c34aae","name":"Pamella Mulrooney","location":"Delmas","address":"14367 Oriole Court","industryType":"Banking"},
{"id":"2f82a615-f161-462a-93d5-78e9bbb5b5d0","name":"Ellerey Taffrey","location":"Stockholm","address":"21687 Cordelia Terrace","industryType":"Insurance"},
{"id":"a5adbfe7-33e3-4f57-b53e-df337470aa89","name":"Cesar Izkoveski","location":"San Sebastian","address":"7 Clyde Gallagher Parkway","industryType":"Insurance"},
{"id":"407443ad-db8a-4828-8b93-3713bbdb28a9","name":"Celka Newcom","location":"Tambulig","address":"61 Forest Run Court","industryType":"Logistics"},
{"id":"e7cee4fa-b8c4-46f9-b6ea-31d5f4cbff24","name":"Krissy Cardall","location":"Stockholm","address":"11 New Castle Road","industryType":"Insurance"},
{"id":"70a2379d-9ea8-4369-80cf-2821a3f3b6f2","name":"Domeniga Jantzen","location":"Aş Şalw","address":"938 Dorton Street","industryType":"Logistics"},
{"id":"4520d5c8-8a80-4aee-a45f-e202fc88d39a","name":"Ronnica Sivil","location":"Jevišovice","address":"98356 Hallows Plaza","industryType":"Logistics"},
{"id":"6475b722-a4d7-43a7-984c-f68bc898cadc","name":"Konstance Pasticznyk","location":"Arteche","address":"7100 Mitchell Drive","industryType":"Insurance"},
{"id":"f24cd3f4-a80e-4b49-9249-b885e4f8af20","name":"Kelila Kivelhan","location":"Casais de Revelhos","address":"2052 Annamark Point","industryType":"Logistics"},
{"id":"9b9ebf81-1053-490e-a981-0163aa0352b4","name":"Giacopo Obee","location":"Ichuña","address":"985 Marcy Place","industryType":"Retail"},
{"id":"0f475e10-7b24-47de-96bb-154bac965d9a","name":"Boone Jeger","location":"Kyzyldzhar","address":"10069 Sycamore Road","industryType":"Insurance"},
{"id":"b5900bd7-cd66-4ac5-9a0b-58c8a0ee036c","name":"Ashia Glewe","location":"Ovsyanka","address":"943 Sheridan Lane","industryType":"Logistics"},
{"id":"bad7b716-367e-4118-9093-2d6894e5ca73","name":"Milena Nazer","location":"Mpulungu","address":"9 Morrow Lane","industryType":"Banking"},
{"id":"75e80bcc-d2d5-4759-875b-5d40b4324cef","name":"Kristoforo Amorts","location":"Qinjia","address":"20059 Lotheville Road","industryType":"Banking"},
{"id":"1729d093-a532-4983-aa01-faea05e731f1","name":"Angie Jellicorse","location":"Sant Julià de Lòria","address":"7 Helena Pass","industryType":"Banking"},
{"id":"2d0bf9e7-2d98-4b22-b1b1-f18655bf357d","name":"Kiel MacTrustrie","location":"Jiatou","address":"74214 Lukken Crossing","industryType":"Logistics"},
{"id":"ee8e9fc7-ae82-41dc-86a4-5517e174e520","name":"Gusella Kemet","location":"Guaranda","address":"42732 Sunfield Trail","industryType":"Logistics"},
{"id":"81007c2c-8759-483a-af6e-113e3a506ba7","name":"Frants Karpe","location":"Mykolayiv","address":"164 Londonderry Street","industryType":"Banking"},
{"id":"623fb8a1-f214-46d2-8d23-b3ff8647fd48","name":"Sibbie Tiernan","location":"Matoupu","address":"172 Goodland Circle","industryType":"Media"},
{"id":"a5063a3a-72ae-4618-bf9d-f1c11c2072a7","name":"Des Bearham","location":"Cerinza","address":"090 Thackeray Circle","industryType":"Logistics"},
{"id":"64a621a8-e38e-4f16-b46f-8cce4f7dd674","name":"Kala Girardeau","location":"Rio Claro","address":"0212 Comanche Avenue","industryType":"Logistics"},
{"id":"23564c0a-48ce-469c-9f46-4cd4e220763c","name":"Annette Jellicorse","location":"Brzeźnica","address":"62434 Dahle Terrace","industryType":"Insurance"},
{"id":"a5aaf0da-a44d-4bc4-abdc-2029b8843c03","name":"Nikolaos Stroban","location":"Mandeni","address":"07845 West Lane","industryType":"Logistics"},
{"id":"1ec8495d-0c1b-4c29-92c0-adb5e82b4640","name":"Denver Heathfield","location":"La Victoria","address":"3376 Judy Terrace","industryType":"Banking"},
{"id":"5ee21d55-4c7f-4918-9046-4708984deb20","name":"Pris Eustes","location":"Pizhanka","address":"3078 Monica Point","industryType":"Logistics"},
{"id":"709c9123-b6ab-4215-a8d0-7437c46edd11","name":"Hart Wisker","location":"La Playosa","address":"41 School Alley","industryType":"Insurance"},
{"id":"3a55dd1c-8d51-4a4b-8865-a9d2f8fef95e","name":"Jeanie Aldgate","location":"Sitajara","address":"98 Sommers Lane","industryType":"Banking"},
{"id":"f0b785ee-a7ce-43c2-a344-f49f9f3a2c05","name":"Ignatius Tracey","location":"Dongfu","address":"6332 Eagle Crest Plaza","industryType":"Logistics"},
{"id":"e4cf6a0d-8511-4f31-a979-80ac30f98f25","name":"Lindsay Tudor","location":"Sharjah","address":"73 Bowman Court","industryType":"Logistics"},
{"id":"68397cae-e09e-4a87-b8b4-40e242813ab9","name":"Zilvia Davson","location":"Irshava","address":"67463 Kenwood Pass","industryType":"Insurance"},
{"id":"d25a604d-bb68-4c5a-b533-f56017332e93","name":"Phoebe Panter","location":"Manaoag","address":"87335 Kim Road","industryType":"Logistics"},
{"id":"d9292392-d74a-458a-b0f0-82f74dacae08","name":"Antonia Moss","location":"Zbytków","address":"0573 Meadow Vale Point","industryType":"Retail"},
{"id":"006b3309-9ba4-4017-bb68-4397a70109be","name":"Marietta Adao","location":"Carcavelos","address":"28 Meadow Vale Alley","industryType":"Banking"},
{"id":"8865c9f7-d99d-4009-add1-bae55159a70b","name":"Sheff Keoghan","location":"Tuatuka","address":"7223 Gulseth Center","industryType":"Retail"},
{"id":"be8cc577-4c71-4463-9ea8-c667e43baa4b","name":"Fowler Cannavan","location":"Dallas","address":"92907 Linden Road","industryType":"Banking"},
{"id":"affb96a2-638a-40a6-8f7c-2a28b9f7fdbf","name":"Vivian Dunckley","location":"Baisha","address":"92 Grim Road","industryType":"Logistics"},
{"id":"ab9565de-2cd9-469b-bcea-8898db5abec3","name":"Orren Sapp","location":"Khorosheve","address":"68 Coleman Trail","industryType":"Logistics"},
{"id":"3348372d-5892-4194-93fa-71342a71933a","name":"Antony Bernardes","location":"Großklein","address":"50 Meadow Vale Plaza","industryType":"Logistics"},
{"id":"eafd751f-057f-4b27-a903-2a8542247cbe","name":"Salmon Blencoe","location":"Bąków","address":"63 Schlimgen Trail","industryType":"Logistics"},
{"id":"98a67ee9-2c82-46e6-9fd4-1bb1e4370c71","name":"Andriette Ovitts","location":"Trollhättan","address":"77 Barnett Park","industryType":"Banking"},
{"id":"b5e62879-d346-4057-b35d-cec3ba7802c4","name":"Ernestus Matyushonok","location":"Xiadu","address":"25505 Surrey Place","industryType":"Insurance"},
{"id":"ab260f09-5c0e-4a9a-904d-24d9c51f5719","name":"Kennedy Sandcraft","location":"Sinjār","address":"01 Farwell Plaza","industryType":"Logistics"},
{"id":"9222f3e5-d9c2-405f-bdec-2992ccb07d8d","name":"Morten Aggis","location":"Jicun","address":"324 Carey Road","industryType":"Logistics"},
{"id":"4d18888e-e0c9-4ab3-a3a2-625a99da43bb","name":"Eleanora Esser","location":"Trélazé","address":"7 Spaight Alley","industryType":"Media"},
{"id":"73d7e11a-71f3-4ed7-90f4-4f9ba69a4234","name":"Andrus Brainsby","location":"Kamojimachō-jōgejima","address":"5292 Porter Hill","industryType":"Logistics"},
{"id":"b776179e-d878-4ca8-9b8f-ed6476449759","name":"Estele Brimson","location":"Dalazi","address":"7 Warrior Junction","industryType":"Insurance"},
{"id":"a6545764-c69c-47c1-b5a9-691a53cfc236","name":"Nestor Poznan","location":"Daur","address":"52955 Pankratz Parkway","industryType":"Logistics"},
{"id":"88ed6034-d564-494a-88ec-032a40ae4f6a","name":"Nehemiah Sherrin","location":"Tanahwurung","address":"9889 Johnson Junction","industryType":"Logistics"},
{"id":"9e8b6e77-562b-4f73-a16b-93bba77344e6","name":"Viviana Croucher","location":"Toba","address":"3145 Buell Trail","industryType":"Retail"},
{"id":"7759223b-400c-4c30-8fe1-c087211ad4f1","name":"Roy Niece","location":"Riangbao","address":"47 Dayton Trail","industryType":"Logistics"},
{"id":"08f93332-4763-4b67-9048-87e83ca98ef5","name":"Rowena Baumaier","location":"Hutou","address":"74 Mandrake Road","industryType":"Insurance"},
{"id":"6005cfbd-91af-4b52-b5c8-ba226f7b2288","name":"Demetrius McCritichie","location":"Dobrich","address":"34402 4th Avenue","industryType":"Logistics"},
{"id":"bdd1f99d-dcec-4535-a871-729cefbce49a","name":"Pen Virgo","location":"Yala","address":"6734 Moland Way","industryType":"Logistics"},
{"id":"88a729d1-02da-49c9-a3f9-f3d88aa7af94","name":"Raffaello Blanchette","location":"Kakaek","address":"61421 Thackeray Terrace","industryType":"Logistics"},
{"id":"1f08d63e-bf2c-4e3d-ad6b-e8c62f2af8ca","name":"Rivy Shevill","location":"Fengyan","address":"9092 Forest Circle","industryType":"Logistics"},
{"id":"bb2e7f8e-4173-4b2e-91ff-1557048254ff","name":"Jeno Ganniclifft","location":"Houndé","address":"61 8th Road","industryType":"Logistics"},
{"id":"187ac87c-cfe3-4c6a-bc45-80f903414fe0","name":"Else Firman","location":"Grigiškės","address":"407 Eagle Crest Point","industryType":"Banking"},
{"id":"b28a0bf5-8a15-434a-bc48-9248453fc111","name":"Gaynor Avrahamoff","location":"Kuznetsovs’k","address":"8 Pleasure Avenue","industryType":"Insurance"},
{"id":"e6df8722-c489-4890-b5ed-5f2e31a3707e","name":"Dionisio Folkard","location":"Vientiane","address":"54 Dawn Alley","industryType":"Logistics"},
{"id":"4f56781e-bd2d-415a-b301-9e3e438211b8","name":"Harriett Endrici","location":"Shuanghe","address":"37 Nobel Plaza","industryType":"Media"},
{"id":"8a4d8261-6789-4c51-998a-b6aeab2733a5","name":"Benito Dmych","location":"Riversdale","address":"52 Golden Leaf Lane","industryType":"Logistics"},
{"id":"711de4b2-afb6-4aff-9fdc-bd7906ff746a","name":"Shep Boleyn","location":"Matara","address":"934 Caliangt Junction","industryType":"Banking"},
{"id":"8b27bfea-a5be-4a47-b281-6032881e8ec8","name":"Sheeree Briereton","location":"Sarapul","address":"08746 Vahlen Place","industryType":"Logistics"},
{"id":"5da587f6-2d8a-4454-83e6-983a2ee43bde","name":"Ned Pollastro","location":"Croix","address":"99263 Logan Road","industryType":"Banking"},
{"id":"02d06235-029e-4c46-a682-1d3335182d1e","name":"Garnet Balaison","location":"Holoriang","address":"0 Farwell Street","industryType":"Logistics"},
{"id":"a7a1bc9e-0bf9-4d97-82d6-e97f60cdc16c","name":"Jedediah Beaulieu","location":"Jiangshan","address":"21 Blackbird Center","industryType":"Logistics"},
{"id":"2717177c-e6eb-4c47-8011-12c03e8d7d76","name":"Saxon Doge","location":"Guagua","address":"528 Almo Crossing","industryType":"Banking"},
{"id":"5195a362-cece-44d3-8f14-1f60a450b7b1","name":"Emma Kamena","location":"Khallat Ḩamāmah","address":"1 Shoshone Street","industryType":"Logistics"},
{"id":"dfcce595-0840-41c9-adb9-763fbad13242","name":"Benedikta Walewski","location":"Bykivka","address":"74420 Harper Point","industryType":"Insurance"},
{"id":"19d92e12-96f5-4c38-8ade-bf04f20db1e0","name":"Jocelyne Comini","location":"Libu","address":"1 Forster Street","industryType":"Logistics"},
{"id":"129dbf50-3de3-4f08-871e-e0f1f0d5f8b1","name":"Kerrie Halburton","location":"Larvik","address":"7318 Ridgeview Court","industryType":"Banking"},
{"id":"fd793f0a-0345-4b34-86c0-3208e7fe5983","name":"Carlen Frary","location":"Monastyrishche","address":"0 Canary Parkway","industryType":"Banking"},
{"id":"1ad45071-01d5-4615-b976-3e46637c6cf4","name":"Ellswerth Jirsa","location":"Jablunkov","address":"757 Gateway Trail","industryType":"Banking"},
{"id":"b84fa3fc-79ea-4b2d-a79c-ffc9916cb6d4","name":"Terrill Mugglestone","location":"Gampengrejo","address":"1059 Springs Street","industryType":"Logistics"},
{"id":"8c97c29d-6680-4d1a-a0ca-63f6a813007c","name":"Nanine Stiles","location":"Kolape","address":"6940 Stone Corner Drive","industryType":"Banking"},
{"id":"d180e6cc-096e-4be4-a187-31b0a879a3b4","name":"Stephannie Giraudy","location":"Gadzhiyevo","address":"6 Maple Hill","industryType":"Retail"},
{"id":"8226253a-6d78-413f-b8ea-2e40d081b0fe","name":"Lemar Kalker","location":"Tsaghkahovit","address":"8402 Vera Circle","industryType":"Logistics"},
{"id":"748698f6-3f20-4b73-a03f-e1db55c03b2e","name":"Juliane Bereford","location":"Babahoyo","address":"680 Eliot Avenue","industryType":"Media"},
{"id":"e9095727-9ea4-418e-9b4e-b64f5cfeaec1","name":"Maybelle Ledson","location":"Philadelphia","address":"1917 Springview Trail","industryType":"Banking"},
{"id":"59b63284-f71d-464f-9b59-5cfcb6ac1bc1","name":"Griffin Nano","location":"Stroitel’","address":"69652 Sullivan Place","industryType":"Logistics"},
{"id":"16a5c681-5479-4dfb-a63b-a7708bc7e90c","name":"Almeria Farlowe","location":"Lešná","address":"03 Oxford Way","industryType":"Banking"},
{"id":"caf83ed9-52bd-47c2-a256-bf14d5c398f5","name":"Carissa Ritmeier","location":"Quartier Militaire","address":"273 Crescent Oaks Alley","industryType":"Logistics"},
{"id":"3ae3d0ce-8158-4a70-af10-56edf2aaaa65","name":"Lara Millwater","location":"Changchuan","address":"65 Emmet Crossing","industryType":"Insurance"},
{"id":"50cdf135-fb68-446c-b577-6cb2a1304366","name":"Fionna Toghill","location":"General Enrique Mosconi","address":"0161 Union Alley","industryType":"Banking"},
{"id":"1cc8721a-6c86-43fe-b247-28ab42a3a12e","name":"Alphard Ibanez","location":"Puqi","address":"8 New Castle Plaza","industryType":"Insurance"},
{"id":"c1aec95c-a5ad-4280-8fab-1de9f46b9587","name":"Kale Tadd","location":"Luhans’ke","address":"521 Ohio Avenue","industryType":"Logistics"},
{"id":"06b9d10f-bbbd-46e2-ae49-22fa7820f8d9","name":"Thorny Nyles","location":"Pelasgía","address":"448 Kenwood Trail","industryType":"Insurance"},
{"id":"3965cc13-901a-4ff0-888a-5fa3ef59e1ed","name":"Ilario Danieli","location":"Kíti","address":"31807 Brentwood Pass","industryType":"Banking"},
{"id":"4cb87398-43a5-4db6-ab17-6dabcbb5bc4c","name":"Jorge Dudbridge","location":"Forssa","address":"1 Hauk Terrace","industryType":"Insurance"},
{"id":"ae07756e-ab49-432d-bca5-67f63a22be24","name":"Piggy Meco","location":"Chumphon Buri","address":"5 Jenna Lane","industryType":"Banking"},
{"id":"1be2ebae-2840-480d-9221-e05420eb8cbd","name":"Pierrette Bordes","location":"Bašaid","address":"1 Cardinal Place","industryType":"Banking"},
{"id":"fd870f4f-369c-4cc4-8f13-15d14a2bdca5","name":"Fraze Wooldridge","location":"Saginaw","address":"535 Cherokee Plaza","industryType":"Logistics"},
{"id":"731c533d-28ff-4436-bd5a-2f36c76c7c33","name":"Wallache Goch","location":"Potštát","address":"06 Dayton Plaza","industryType":"Logistics"},
{"id":"82bf1b95-d7d6-4ca8-820a-417344869c04","name":"Cornell Kilpin","location":"Kradinan","address":"35332 2nd Plaza","industryType":"Logistics"},
{"id":"a01f0c1d-b7a4-4d05-85de-a55ecbdb08e6","name":"Katee Surman","location":"Sabaneta","address":"71067 Bunting Parkway","industryType":"Insurance"},
{"id":"0606c6e6-74d2-4108-b5ea-326ba37e7f4b","name":"Dorelia Estabrook","location":"Suresnes","address":"2 Fallview Alley","industryType":"Banking"},
{"id":"c946bbbb-d533-4261-b138-a8a99dc511d3","name":"Tye Le Teve","location":"Eqlīd","address":"30700 Gale Crossing","industryType":"Banking"},
{"id":"85196539-14b6-4080-a5df-307caa9cfaf7","name":"Emanuel Jelfs","location":"Sukapura","address":"5 Old Shore Place","industryType":"Retail"},
{"id":"d9896281-95d1-478b-a389-d9548e9209ea","name":"Olympe Doodson","location":"Dundrum","address":"9 Eliot Trail","industryType":"Logistics"},
{"id":"b07f67a3-47b5-47c7-aa8d-f41648b8297a","name":"Conway Kittredge","location":"Cungapmimbo","address":"06863 Surrey Trail","industryType":"Media"},
{"id":"ed2d4924-c7ae-4622-a3b6-1defcdb25afd","name":"Danielle Skill","location":"Tong’an","address":"88 International Pass","industryType":"Logistics"},
{"id":"d13b760e-4fcd-4b5b-97a4-f49265275cf6","name":"Bobette Wellwood","location":"Osa","address":"1 Banding Lane","industryType":"Logistics"},
{"id":"4d149ca5-be8d-4474-90d4-69ccb8d408d9","name":"Enriqueta Baumford","location":"Changgou","address":"723 Meadow Valley Pass","industryType":"Retail"},
{"id":"8513d8c0-347f-4a62-bcf3-c883262cb6bd","name":"Nathanil Bragginton","location":"Gambēla","address":"10963 Starling Street","industryType":"Logistics"},
{"id":"8439c251-b551-4048-8c58-4509c00293e4","name":"Chrissie Haddock","location":"Särö","address":"252 5th Drive","industryType":"Logistics"},
{"id":"0a99a2b2-e9a4-4a1d-ae72-10c5d2216c62","name":"Marylinda Kenningham","location":"Chyżne","address":"2259 Orin Drive","industryType":"Media"},
{"id":"99da5a00-4348-4097-8d84-543d19b4025c","name":"Ilse Gissop","location":"Tuymazy","address":"25298 Mayfield Road","industryType":"Logistics"},
{"id":"4df9ea32-f014-41dc-99c9-4d35acfafe6f","name":"Leanna Teggin","location":"Batan","address":"64200 Hanover Park","industryType":"Logistics"},
{"id":"97f10f10-875c-42ee-929e-3bcf70fe09d5","name":"Derril Kornyakov","location":"Mama","address":"7 Prairieview Alley","industryType":"Logistics"},
{"id":"fde940b5-b3ff-48c8-ab73-01c82a417dad","name":"Carlos Dundridge","location":"Kampungsusah","address":"66408 Melody Crossing","industryType":"Logistics"},
{"id":"c8ba6fa7-ab63-4478-9f80-413b8cfaad04","name":"Agna Iwanczyk","location":"Berekum","address":"24209 Anthes Lane","industryType":"Logistics"},
{"id":"a2ade540-7082-4653-b722-b37c2e2fd40e","name":"Ulises Fadell","location":"Almafuerte","address":"9624 Ludington Pass","industryType":"Logistics"},
{"id":"30bf7600-4653-4d61-81a3-4728554d5f34","name":"Gawain Fossett","location":"Yidu","address":"85274 Bluejay Trail","industryType":"Logistics"},
{"id":"8f068fcf-01ca-414b-81b2-ee5d9d28bc7d","name":"Ruperto Jess","location":"Maticmatic","address":"5224 Upham Court","industryType":"Banking"},
{"id":"0df7d141-a543-41fd-b900-78ca5bb02731","name":"Opaline Follacaro","location":"San Agustín Acasaguastlán","address":"3974 Old Gate Circle","industryType":"Logistics"},
{"id":"18a783ff-2fb8-45c6-9ebf-c16b02128a7f","name":"Antoine Luckham","location":"Västra Frölunda","address":"8 Red Cloud Pass","industryType":"Insurance"},
{"id":"36673a3b-e9cd-432d-b7cc-00a849cae8b6","name":"Flynn Doerrling","location":"Kota Kinabalu","address":"0774 Mayer Terrace","industryType":"Retail"},
{"id":"b5901267-0893-4f9a-8411-0291d2409ad5","name":"Tammy Varney","location":"Plaeng Yao","address":"4932 Delladonna Lane","industryType":"Logistics"},
{"id":"66de2237-a412-4b8d-bafc-ccd1a9ffb16b","name":"Sharlene Mizzen","location":"Yambio","address":"2870 Leroy Avenue","industryType":"Insurance"},
{"id":"41279853-24b2-41b4-831a-43b983f05893","name":"Brook Gillice","location":"Salto","address":"214 Ruskin Place","industryType":"Banking"},
{"id":"c7cc5e19-5a8a-4262-bb2a-168b320f1299","name":"Tremayne Gilkison","location":"La Rochelle","address":"9 Dapin Place","industryType":"Logistics"},
{"id":"00b8ce66-6d70-4710-97f2-4f01f472b991","name":"Arlyn Arnatt","location":"Bhalil","address":"6480 Corry Avenue","industryType":"Logistics"},
{"id":"7a4acc6e-cd81-4d27-bb9b-2ed7eb991980","name":"Warden Meacher","location":"Sonlit","address":"68 Pearson Circle","industryType":"Logistics"},
{"id":"930f1ded-786d-47f8-a6b6-08f12b59c2af","name":"Simone Cranfield","location":"Baishan","address":"5882 Mandrake Place","industryType":"Logistics"},
{"id":"85a997ba-790b-471a-b07c-8b6bd34f607c","name":"Nolly Milkin","location":"Chatturat","address":"702 Truax Court","industryType":"Retail"},
{"id":"a9f66827-97af-4072-9032-89fa8d5ea4f6","name":"Annabell Beinke","location":"Santa Clara","address":"65 Kensington Hill","industryType":"Logistics"},
{"id":"d61a0129-a7d6-4960-9981-6ce026dbc9e9","name":"Fredra Stych","location":"Rat Burana","address":"913 Corry Way","industryType":"Logistics"},
{"id":"c073bb96-2eb2-4107-ba93-eed80f137cf1","name":"Isiahi Brimblecomb","location":"Doudleby nad Orlicí","address":"581 Green Ridge Way","industryType":"Banking"},
{"id":"2668662a-0c2e-49d7-bddb-83b3bfc97da3","name":"Mahalia Arnaez","location":"Puente Nacional","address":"16 Badeau Lane","industryType":"Banking"},
{"id":"4e396d6a-dfe5-4208-9e23-0cebdbc8455e","name":"Patton Slany","location":"Gonça","address":"8078 Claremont Plaza","industryType":"Logistics"},
{"id":"4decc6f8-4928-43d3-a0b3-0f09cca41c34","name":"Daile O'Sharry","location":"Shenavan","address":"6454 Crescent Oaks Place","industryType":"Retail"},
{"id":"bf6412b1-dc32-4fe8-8f07-fd67900d4116","name":"Emmeline Durrance","location":"Upi","address":"52603 Barnett Point","industryType":"Banking"},
{"id":"054df319-7721-4a99-8de0-dfb91dcf1329","name":"Sinclare Morrid","location":"Yuwan","address":"075 Kingsford Circle","industryType":"Insurance"},
{"id":"f3e732df-9d14-44a9-af57-eea53948e268","name":"Arliene Angrick","location":"Bous","address":"29 Golf Course Center","industryType":"Logistics"},
{"id":"29725c3c-d32d-4650-b1b0-9f9fbd98338a","name":"Ethelbert Whittuck","location":"Zambujeira do Mar","address":"5 Continental Plaza","industryType":"Logistics"},
{"id":"c868f625-e1f6-48c1-997b-3b7842e57b37","name":"Tyrone Tansill","location":"Sabirabad","address":"830 Sugar Point","industryType":"Retail"},
{"id":"9a1a2b6e-8c98-4ee5-8230-e4fb3184de95","name":"Dani Dorsett","location":"Katuli","address":"43 Lien Parkway","industryType":"Logistics"},
{"id":"78c4f651-fc9b-47c9-a340-27a3099acfff","name":"Kizzee Lochhead","location":"Maricá","address":"64 Pankratz Avenue","industryType":"Media"},
{"id":"4fcde5d1-c18c-4482-b102-029f9d353f88","name":"Lottie Bruyet","location":"Iguape","address":"21150 5th Parkway","industryType":"Media"},
{"id":"e128d1fa-30e9-49ac-b7b9-aec8a247b043","name":"Michaelina Bradane","location":"Arboga","address":"554 Division Junction","industryType":"Banking"},
{"id":"ed13fa7c-3907-4acc-8537-188124517cb5","name":"Magdalena Cowerd","location":"Zaranj","address":"7416 Springview Point","industryType":"Logistics"},
{"id":"b67b03cf-05ec-433b-9bc4-d324f62e7bc2","name":"Wenona Coady","location":"Żywiec","address":"208 Lotheville Crossing","industryType":"Retail"},
{"id":"93497c61-b6ce-4824-b9d1-97428726dd39","name":"My Colbert","location":"Jinluo","address":"6 Mandrake Center","industryType":"Logistics"},
{"id":"6e861d28-fa54-4efa-9b10-e84e053e99f6","name":"Earl Burch","location":"Phan Thong","address":"358 Crescent Oaks Circle","industryType":"Logistics"},
{"id":"c3cd984d-728c-400c-9038-8afa05558829","name":"Trumaine Castel","location":"Fuxing","address":"7924 Northland Street","industryType":"Banking"},
{"id":"aa7423ce-66c7-4885-a24c-3182ada77a83","name":"Molly Fairham","location":"Pereyaslav-Khmel’nyts’kyy","address":"7172 Delladonna Park","industryType":"Banking"},
{"id":"461ac766-4914-4688-bc9b-40d039d19f06","name":"Jock Kirkpatrick","location":"Pandian","address":"7 Crescent Oaks Alley","industryType":"Logistics"},
{"id":"3e5d029a-54d7-4426-8443-03019894fda8","name":"Celestia Burrill","location":"Memphis","address":"389 Iowa Plaza","industryType":"Logistics"},
{"id":"27ecd3ee-db42-4e05-9d11-3e311b3e20e8","name":"Barbee Brumby","location":"Jasionów","address":"4113 Tony Center","industryType":"Logistics"},
{"id":"0588af44-b074-41da-b2c2-106469b4d512","name":"Dagny Farady","location":"Tarikolot","address":"422 Clarendon Circle","industryType":"Banking"},
{"id":"746da6ef-7227-454a-bfb2-7a1977eab687","name":"Boone Jeays","location":"Vavatenina","address":"2 Moland Road","industryType":"Insurance"},
{"id":"2e42ed4e-2468-490d-bad3-016d679acfc8","name":"Christoph Brundell","location":"Jiangbu","address":"139 Delaware Court","industryType":"Retail"},
{"id":"854b397d-4f91-4cb9-b74a-c8791b2a4ac6","name":"Teressa Bartolomieu","location":"Khon San","address":"639 Northwestern Drive","industryType":"Logistics"},
{"id":"dc672d84-35c0-4aae-84c4-aec6c05dbc70","name":"Elvis Alexsandrowicz","location":"Brodnica","address":"6 Petterle Alley","industryType":"Logistics"},
{"id":"f095d420-30d8-4455-bf31-a437da503a77","name":"Rolando Duckering","location":"Shkotovo","address":"3 Monica Circle","industryType":"Retail"},
{"id":"5a784fc7-10c1-4a35-a380-aa32e562935a","name":"Henri Aldie","location":"Sepekov","address":"23716 Beilfuss Terrace","industryType":"Logistics"},
{"id":"6fe318d6-0adf-45ca-88a0-e91a20b7f96a","name":"Dona Shiril","location":"Sipocot","address":"76050 Larry Street","industryType":"Logistics"},
{"id":"39e439f2-d91c-46ef-a3a3-76368be3cb8c","name":"Joshuah Matthisson","location":"Hāsilpur","address":"36 Florence Parkway","industryType":"Banking"},
{"id":"50f784a3-b575-4b48-85c7-18aec4d6e291","name":"Allison Moule","location":"Penambangan","address":"050 Warner Crossing","industryType":"Banking"},
{"id":"046359ab-40ea-4bdc-9163-4ba96125919d","name":"Porty Robison","location":"Beau Vallon","address":"9 Lyons Lane","industryType":"Logistics"},
{"id":"4e1a0485-091f-41bc-86c5-dfe32a5eb928","name":"Vittoria Massey","location":"San José de Miranda","address":"97 Jenna Point","industryType":"Logistics"},
{"id":"fc2b834e-7e06-4927-8911-95cf70782783","name":"Claudelle Philip","location":"Deder","address":"05466 Barby Drive","industryType":"Retail"},
{"id":"fc543e0f-b7e8-43de-870a-44e8c28ac804","name":"Buddy Hinze","location":"Kamyshevka Vtoraya","address":"50 Havey Road","industryType":"Logistics"},
{"id":"97227da8-1c3a-48e1-a508-61fddde8665f","name":"Theo MacMenamie","location":"Balekambang","address":"8 Armistice Terrace","industryType":"Logistics"},
{"id":"5fe90aff-1d19-446d-bb23-6815505d55c9","name":"Micky Woolham","location":"Saint-Étienne","address":"0742 Corben Place","industryType":"Insurance"},
{"id":"95b5388f-e09c-4c49-bf94-b23662b2bd81","name":"Star Gravener","location":"Krychaw","address":"435 Duke Crossing","industryType":"Logistics"},
{"id":"5074c47d-7d70-43b4-9765-bdb71cf986de","name":"Pinchas Ajsik","location":"Bálsamo Oriental","address":"95 Village Parkway","industryType":"Media"},
{"id":"839fba44-953e-48b5-8f05-3e9d1d474a7e","name":"Christoph Hariot","location":"Chwaszczyno","address":"949 Reinke Junction","industryType":"Logistics"},
{"id":"fbed1825-f2d5-4f20-aa7d-00f5f43684ad","name":"Alphonse Todaro","location":"Casa Nova","address":"47098 Vidon Crossing","industryType":"Logistics"},
{"id":"cda73262-8276-4d61-9a9b-d7fcbffb5973","name":"Junie Sudlow","location":"Bajo Pichanaqui","address":"3 Ilene Parkway","industryType":"Insurance"},
{"id":"5e0332a1-c85f-4648-869f-37165d8949f0","name":"Corly Feldberg","location":"Bandar Pusat Jengka","address":"176 Birchwood Point","industryType":"Logistics"},
{"id":"88a0dfa6-6cb7-4551-b34e-b5e2173f0269","name":"Bancroft Gordon","location":"Quintas","address":"849 Fulton Place","industryType":"Media"},
{"id":"1f2fd8a9-cd14-4467-ab27-1b111cd7c455","name":"Alvira Arminger","location":"Hantara","address":"18 Dexter Drive","industryType":"Banking"},
{"id":"cbec97ee-8beb-4945-b859-79c59c187af2","name":"Venus Brasner","location":"Kuching","address":"57084 Arizona Point","industryType":"Banking"},
{"id":"3983775d-a60b-46df-aa0d-762b00537539","name":"Ferd Shubotham","location":"Ankazondandy","address":"3590 Farwell Park","industryType":"Insurance"},
{"id":"61d60caf-fdb2-4e7a-8ba9-168a9d34ba65","name":"Denice Arias","location":"Nuštar","address":"06 Barnett Way","industryType":"Logistics"},
{"id":"e38a3da2-6ed5-4b87-9aed-9f46b4646d2f","name":"Ilysa Pearmine","location":"Dongxin","address":"814 Ridgeway Alley","industryType":"Retail"},
{"id":"9b018f14-973e-40c4-acdf-f0b9667f8f68","name":"Regina Kemmett","location":"Novoshakhtinskiy","address":"26741 International Plaza","industryType":"Retail"},
{"id":"7f8fa46c-c79b-4012-a7b1-1c674dd95ed9","name":"Eldin Drinkwater","location":"Dalo","address":"36 Spaight Drive","industryType":"Logistics"},
{"id":"cd069713-13fc-4c25-8664-6fa03082b99e","name":"Elisabetta Denidge","location":"Guaitarilla","address":"7 Eggendart Street","industryType":"Logistics"},
{"id":"80a03b1a-b7cb-40a3-bc23-926296865cf5","name":"Inglebert Coysh","location":"Thị Trấn Yên Ninh","address":"49143 Eagle Crest Park","industryType":"Banking"},
{"id":"c3bbf5a3-6fc4-46b6-84e5-2ebdebb724a4","name":"Lannie Howarth","location":"Datun","address":"88 Loomis Drive","industryType":"Insurance"},
{"id":"946edd25-172b-4d2e-b576-669fa25707a2","name":"Kerrie Gracewood","location":"Gujō","address":"56926 Buhler Hill","industryType":"Banking"},
{"id":"0c7ff2d0-418a-406f-a1c6-3afb420818b4","name":"Sissie Scrannage","location":"Beiyang","address":"3007 Marcy Parkway","industryType":"Logistics"},
{"id":"c937e6b8-cb4a-40f1-8e85-e658f157f282","name":"Sydney MacGown","location":"El Paso","address":"850 Maryland Crossing","industryType":"Insurance"},
{"id":"392d774a-79f4-4fc3-b500-df4c7c5d0586","name":"Abagail Mathon","location":"Boavista","address":"67 Holmberg Parkway","industryType":"Banking"},
{"id":"b19b7c67-5612-4cb4-b04c-fcd18c55d597","name":"Garnet Bayles","location":"Veřovice","address":"74447 Warrior Place","industryType":"Logistics"},
{"id":"0393685b-1cfe-44b3-a43d-5bb75cbac2f0","name":"Melitta Burchard","location":"Cakran","address":"8663 Calypso Parkway","industryType":"Logistics"},
{"id":"8f7ff608-66df-4616-b956-e1e98984e3b3","name":"Osmond Barnwall","location":"Newport News","address":"69 Straubel Avenue","industryType":"Logistics"},
{"id":"ad517b7f-68e7-4e05-82a0-5bfbe42ee28a","name":"Tess Twitching","location":"Batroûn","address":"7607 Karstens Place","industryType":"Logistics"},
{"id":"48da90e8-66a6-48f6-867a-49e9b49e326d","name":"Kipper Whiskerd","location":"Miguel Hidalgo","address":"88 Talmadge Alley","industryType":"Logistics"},
{"id":"c98a4d04-24c9-4280-bb5d-f9b265f9e1f5","name":"Olvan Leed","location":"Bonao","address":"19302 Emmet Circle","industryType":"Logistics"},
{"id":"c796a280-494f-4eb4-a87c-4e17d753b065","name":"Fern Steaning","location":"Hägersten","address":"8005 Sunbrook Park","industryType":"Logistics"},
{"id":"f1098e49-36f9-4219-a0a5-21d5d4f07358","name":"Oliviero Selvester","location":"Dangjiaxian","address":"28 Vidon Lane","industryType":"Logistics"},
{"id":"eccbbed0-050f-4a75-b9aa-910c34012163","name":"Edithe Hutchason","location":"Mranggen","address":"751 Swallow Park","industryType":"Logistics"},
{"id":"a96ae412-1e12-4739-b672-5a29f147553f","name":"Keeley Beany","location":"Arapuey","address":"05 Laurel Junction","industryType":"Logistics"},
{"id":"fe259276-40b8-43b0-ab83-80a9ae05a624","name":"Evin Tregust","location":"Grekan","address":"77 Grayhawk Street","industryType":"Logistics"},
{"id":"200e82b6-1f01-468e-9cb6-10d76e148556","name":"Rodi Jeannard","location":"Hefu","address":"764 Norway Maple Avenue","industryType":"Logistics"},
{"id":"aa4c1456-e1b7-4f12-b672-2062e5d24ba5","name":"Johnnie Jankovic","location":"Fontanka","address":"5862 High Crossing Place","industryType":"Logistics"},
{"id":"9f0e37dc-6944-4f61-bd5c-8fdc772380b2","name":"Irwin Elcombe","location":"Aldergrove","address":"36 Ramsey Road","industryType":"Insurance"},
{"id":"04c3a929-7494-4529-9211-aea8609fd1e1","name":"Mela Grafom","location":"Kedungdowo","address":"2 Sloan Center","industryType":"Media"},
{"id":"a11410e7-0324-4e1d-a222-50ed14febdaa","name":"Sanderson Wesgate","location":"Dagang","address":"7 School Parkway","industryType":"Insurance"},
{"id":"39752bc4-362d-4e8f-8996-37042a547581","name":"Roderick Podbury","location":"Krasnogorodskoye","address":"3093 Emmet Place","industryType":"Logistics"},
{"id":"1d1f09a3-afda-470f-86f7-83aef25efc30","name":"Ricki Snoad","location":"Mahdia","address":"50235 Lotheville Trail","industryType":"Logistics"},
{"id":"2a921802-2779-446f-9b40-7e2c4bf68cc9","name":"Boot Bayston","location":"Lat Yao","address":"19351 Stuart Court","industryType":"Logistics"},
{"id":"c0587ad2-d3bf-4ee3-ae7a-b794dbcf6e06","name":"Ladonna Camellini","location":"Bemposta","address":"12863 Artisan Hill","industryType":"Banking"},
{"id":"5cfd8453-7181-48fe-9e7d-a5e151761466","name":"Fanechka Raffles","location":"Debe","address":"03 Bartelt Pass","industryType":"Logistics"},
{"id":"ca5b24c5-b81a-4667-855d-bcf77d5f2ca3","name":"Kailey Barde","location":"Balai","address":"0 Warrior Plaza","industryType":"Banking"},
{"id":"33916381-c383-4dc6-a8a0-041a9cb0dce4","name":"Romain Jenner","location":"Vällingby","address":"70024 Victoria Circle","industryType":"Banking"},
{"id":"e4e650a4-9434-40c6-a528-60c45359eb3d","name":"Agnese Lewsy","location":"Annaka","address":"093 Annamark Circle","industryType":"Logistics"},
{"id":"077be07c-e3d5-4e4e-86e2-5dd81d729b16","name":"Wye Andrag","location":"Sumberagung","address":"4453 Springs Trail","industryType":"Banking"},
{"id":"1c1a5698-5a44-478a-81d0-d5fabe0c029d","name":"Debor Kerne","location":"Kwatarkwashi","address":"737 Grayhawk Point","industryType":"Insurance"},
{"id":"cd054406-adf1-4c47-ba14-95d5417e52de","name":"Ximenez Saladine","location":"Houmt Souk","address":"5 Carey Pass","industryType":"Banking"},
{"id":"ccb0bb1a-6358-49bb-bef6-b9fe6f51641c","name":"Zoe MacGruer","location":"Pushkino","address":"1 Reindahl Street","industryType":"Insurance"},
{"id":"e441cf23-8eff-4f9d-8d9d-0f83ba0fcdf6","name":"Tucky Jozwicki","location":"Yuhe","address":"55 Del Mar Plaza","industryType":"Logistics"},
{"id":"8fbb36b2-c302-4815-98f8-b84611a23646","name":"Persis Kinsley","location":"Bilar","address":"69 Larry Plaza","industryType":"Logistics"},
{"id":"4e19e5cc-391d-4837-8adc-18326287a172","name":"Ted Bird","location":"Luodong","address":"116 Hauk Hill","industryType":"Logistics"},
{"id":"78cfcb89-8345-447f-8047-9afca16d3fcd","name":"Emmey Ivins","location":"Tiancheng","address":"94 Memorial Lane","industryType":"Banking"},
{"id":"80c3a51a-8922-466f-a82a-1e4fd35e795e","name":"Berkeley Fairrie","location":"Shicheng","address":"75 Everett Point","industryType":"Insurance"},
{"id":"61a5152e-de10-44a7-969d-fef68619cd56","name":"Goldina Waterhous","location":"Bandarlampung","address":"0 Marcy Drive","industryType":"Logistics"},
{"id":"5b1ffe7c-d23c-4647-a437-ad4e10ff3f8d","name":"Alvin Gillingwater","location":"Bobolice","address":"1 Utah Circle","industryType":"Logistics"},
{"id":"021722c0-b1a6-40ab-993c-d9cd0072ca55","name":"Wittie Bullcock","location":"Banjaranyar","address":"5 Westend Alley","industryType":"Logistics"},
{"id":"737cd455-34de-48e5-bc6e-b756b0a4673a","name":"Alfi Bittleson","location":"Montelíbano","address":"95 Hovde Drive","industryType":"Insurance"},
{"id":"23207be7-f7bb-43d3-b329-d4abf71b81e0","name":"Maddie Luttgert","location":"Venlo","address":"17569 Kenwood Court","industryType":"Logistics"},
{"id":"3ba1229a-7cd5-4a83-9d14-1e27c6b004b7","name":"Angelica Mieville","location":"Strabychovo","address":"96654 Claremont Lane","industryType":"Retail"},
{"id":"0b0eb1c1-a90b-43fd-a756-1b5c9899e811","name":"Wynn Pisco","location":"Huangqiao","address":"05467 Sherman Point","industryType":"Insurance"},
{"id":"d7b6c2e2-e91d-40cc-b974-71988af74914","name":"Demetre Scolli","location":"Solina","address":"382 Forest Hill","industryType":"Insurance"},
{"id":"7875978c-6763-40b4-bc50-a28a51985f8d","name":"Lisabeth O'Glessane","location":"Ginir","address":"06428 Banding Parkway","industryType":"Insurance"},
{"id":"5ccead9b-bcaf-4b1c-a2e9-ce3c71674266","name":"Erminie Hughland","location":"Geji","address":"50 Homewood Plaza","industryType":"Logistics"},
{"id":"f6695687-86f5-4b8f-9822-b2ebaa26a3d8","name":"Raoul Speare","location":"Casal Velho","address":"1277 High Crossing Junction","industryType":"Banking"},
{"id":"5fe77b03-428d-43e2-b512-66a021e1414c","name":"Corina Gravy","location":"Haebaru","address":"44 Walton Park","industryType":"Retail"},
{"id":"b3c11dda-f3a0-4f05-a110-0f23504ddd0e","name":"Mathew Brooksby","location":"Iperu","address":"99134 Nova Court","industryType":"Logistics"},
{"id":"6e6e7daa-5540-41e7-be40-cbf7b1d49985","name":"Modestia Paule","location":"Basseterre","address":"96 Lien Place","industryType":"Banking"},
{"id":"a8b61734-f60d-4848-b99d-52378b64adaf","name":"Arabela Rafter","location":"Saint-Lô","address":"8 Judy Circle","industryType":"Insurance"},
{"id":"416655ac-ed93-4501-afbc-a90b024eaa8e","name":"Schuyler Bubeer","location":"Caçapava do Sul","address":"32 Springview Plaza","industryType":"Logistics"},
{"id":"69fcc0bb-63b8-4ec3-b161-aeeac530a26d","name":"Leontyne Dorber","location":"Chīchāwatni","address":"68 Fisk Circle","industryType":"Logistics"},
{"id":"31c7e43a-f502-4c3d-96ea-609c75cd2820","name":"Jim Beesey","location":"White Rock","address":"3337 Ilene Alley","industryType":"Logistics"},
{"id":"8af02032-cab1-400b-98a9-1f1742935a0f","name":"Laurene Ternent","location":"Srebrenik","address":"511 Hazelcrest Center","industryType":"Logistics"},
{"id":"745a77b5-11ed-483c-a3d5-fd6a23840f6f","name":"Hercules Baxter","location":"Psary","address":"48 Fieldstone Circle","industryType":"Insurance"},
{"id":"0e960517-9a32-4755-953c-ef608cdeaaeb","name":"Tressa O'Cahey","location":"Pacora","address":"6 Northport Point","industryType":"Insurance"},
{"id":"8099c50e-88c7-4753-85e4-1a2f519140df","name":"Moll Kenefick","location":"Albania","address":"03790 Waywood Junction","industryType":"Banking"},
{"id":"0f573f25-cdff-463a-a20e-4f2a8184d181","name":"Virgie McKerrow","location":"Beauvais","address":"1 Elka Park","industryType":"Logistics"},
{"id":"39984fd6-d4f4-44f9-9a26-a5b0bd39c913","name":"Nicholas Dripps","location":"Arshaluys","address":"8 Esch Hill","industryType":"Logistics"},
{"id":"91eec8cd-5adb-4397-997e-db0f20a92665","name":"Eustace Saylor","location":"Santiago De Compostela","address":"048 Mcbride Junction","industryType":"Media"},
{"id":"f86f949b-416a-4e16-aef9-7362a3bcaceb","name":"Kristi Wilsey","location":"Magangué","address":"222 Scott Junction","industryType":"Logistics"},
{"id":"514725ef-2664-4e2c-bc28-fffb23e1d69b","name":"Elisabet Reef","location":"Bairro de Santo António","address":"5874 John Wall Avenue","industryType":"Banking"},
{"id":"c7811c29-fd61-4ed7-98bf-c90f584934ed","name":"Flori Loding","location":"Rýmařov","address":"740 Daystar Crossing","industryType":"Banking"},
{"id":"a834e740-772b-4715-b872-4d5545960bfb","name":"Milo Free","location":"Longping","address":"0502 Sunnyside Crossing","industryType":"Logistics"},
{"id":"5ce19139-9859-4fb5-9fea-44cbed6cc446","name":"Gayelord Algie","location":"Ust’-Dzheguta","address":"22337 Hudson Avenue","industryType":"Banking"},
{"id":"22882eda-9d8b-4d56-8680-4d523bf2448d","name":"Brandais Beed","location":"Plateliai","address":"7 Melvin Avenue","industryType":"Logistics"},
{"id":"892a136b-4c44-4f92-8525-a077d64480df","name":"Gilda Esome","location":"Santa Catarina","address":"1 Talmadge Park","industryType":"Banking"},
{"id":"61aa9db3-e64c-4ba6-b256-cf2d21da4634","name":"Pammi Clopton","location":"Tamansari","address":"14143 Sage Pass","industryType":"Logistics"},
{"id":"05dea091-a13e-4eaf-9102-6f2751f8e685","name":"Ag Berling","location":"Thị Trấn Nguyên Bình","address":"16627 Basil Terrace","industryType":"Logistics"},
{"id":"1ecf1ef7-f946-40a8-a6b3-2f9d978348b7","name":"Danila Filippozzi","location":"Petaling Jaya","address":"77886 Texas Way","industryType":"Insurance"},
{"id":"7ebe5858-be91-4ad8-87ff-fafe09f0f10a","name":"Elladine Cardenosa","location":"Kromasan","address":"68 Marquette Plaza","industryType":"Logistics"},
{"id":"cc94f963-6a22-4cd4-9628-b0e11fc86c91","name":"Rurik Holyland","location":"Boise","address":"53 Elgar Junction","industryType":"Logistics"},
{"id":"243cc1ef-9917-4cdb-b1f7-141ddd25f6d9","name":"Brittani McKeefry","location":"Xinjiebu","address":"15 Chive Plaza","industryType":"Logistics"},
{"id":"f7448395-e0d8-4cda-a985-a58510af9b89","name":"Fransisco Cops","location":"Guluoshan","address":"20625 Forest Dale Drive","industryType":"Logistics"},
{"id":"2281b2f1-901e-4ae3-a158-8ec764bcceb6","name":"June Roscamp","location":"Nanling","address":"53 Spaight Parkway","industryType":"Logistics"},
{"id":"9cc20792-e9f7-4a7a-bf59-6833463fc14d","name":"Claudine Currom","location":"Pérez","address":"08 3rd Park","industryType":"Logistics"},
{"id":"87f67b28-b9e7-4176-8e20-e4713720ae34","name":"Alfie Boles","location":"Saumur","address":"5 Hintze Circle","industryType":"Insurance"},
{"id":"0e64d5de-af61-46c6-8e71-1fde29bf2b08","name":"Donia Pere","location":"El Copé","address":"393 Banding Parkway","industryType":"Banking"},
{"id":"3785ed69-32d1-4e47-a65f-63c5798645c0","name":"Janeta Oosthout de Vree","location":"Thiais","address":"01271 Union Park","industryType":"Insurance"},
{"id":"1d27d85d-94d4-46f8-b822-0556f9efd868","name":"Brynne Strode","location":"Citarik","address":"8 Division Circle","industryType":"Logistics"},
{"id":"8777cd14-01b8-430a-a4d8-6fe05e617ee7","name":"Garey Ffoulkes","location":"Nusajaya","address":"120 Springview Junction","industryType":"Banking"},
{"id":"e6366c7d-8bd4-4e77-b4e9-a56a4fe1cce9","name":"Sigvard Frisch","location":"Nggesa","address":"3754 Nevada Plaza","industryType":"Logistics"},
{"id":"cf3753de-c334-4940-bae4-c624494a048c","name":"Petunia Jikylls","location":"Arauca","address":"2 Fair Oaks Crossing","industryType":"Logistics"},
{"id":"d210b5cc-15a4-4a22-a012-9afcfce1cac2","name":"Klement Zumbusch","location":"Beitan","address":"5318 Cottonwood Terrace","industryType":"Insurance"},
{"id":"99165d4a-e21f-4fa3-8d57-4095d08f8567","name":"Adrianne Huncoot","location":"Xiaoyi","address":"070 Fair Oaks Court","industryType":"Logistics"},
{"id":"dedcdbca-6517-4bf3-8a6e-1640262b6e89","name":"Lefty Langer","location":"Kota Kinabalu","address":"036 Longview Junction","industryType":"Logistics"},
{"id":"c609058d-b120-4440-975d-804147e7cde8","name":"Garald Shakelady","location":"Šibenik","address":"5590 Vermont Center","industryType":"Insurance"},
{"id":"02bd76ba-f426-402e-a51a-7f12476c2fc9","name":"Joly Ludlow","location":"Grande Prairie","address":"3 Golf View Lane","industryType":"Insurance"},
{"id":"25cce270-271f-4129-b11c-f33f77f6cad7","name":"Bel Waszczykowski","location":"San Agustín Acasaguastlán","address":"0 La Follette Park","industryType":"Logistics"},
{"id":"5c5e8a13-80ea-4445-be0e-ab988037a7b1","name":"Winny Ingamells","location":"Zliv","address":"10250 Farwell Pass","industryType":"Banking"},
{"id":"34b3154a-6023-4ad1-8bac-c8f2e751b458","name":"Vail McIlveen","location":"Trai Ngau","address":"748 Gateway Pass","industryType":"Logistics"},
{"id":"a8f8fb44-7cdd-49fd-9cab-4e2e5f56845f","name":"Hadley Korpal","location":"Värnamo","address":"8 Cordelia Drive","industryType":"Logistics"},
{"id":"3709df6f-7b2e-47c1-82c9-eca86ef2fe75","name":"Karyn Bendall","location":"Eshan","address":"19928 Rutledge Junction","industryType":"Logistics"},
{"id":"207a5baa-5f90-493a-95d2-062e58d40cf7","name":"Maris McHaffy","location":"Waihi Beach","address":"6 Stone Corner Lane","industryType":"Media"},
{"id":"e4f6e0e1-fbbf-401f-bed9-b17a9652065e","name":"Arlette Phillcox","location":"Mercedes","address":"49005 Sycamore Pass","industryType":"Insurance"},
{"id":"132a1703-7cea-4a80-962d-ff80510a6c69","name":"Karlik Lamas","location":"Ojo de Agua","address":"43 Elgar Drive","industryType":"Logistics"},
{"id":"1b421250-87e6-4aaa-9967-8c1aa3aae1ab","name":"Charmian Jantzen","location":"Balud","address":"09828 Laurel Plaza","industryType":"Media"},
{"id":"92a57d54-5026-420c-ae82-f7f78b02a815","name":"Nannie Fairhead","location":"Budapest","address":"64 Ohio Street","industryType":"Retail"},
{"id":"15fe9437-8ddb-42e8-a1af-0ee6111c6126","name":"Ignazio Ogelbe","location":"Dubai","address":"4063 Nobel Place","industryType":"Insurance"},
{"id":"118afe94-ebcd-460b-bfed-bd2db30aac11","name":"Arlee Brammall","location":"Bromma","address":"36318 School Pass","industryType":"Media"},
{"id":"d0615488-0f74-476d-be07-d84e3903bd91","name":"Kayley De Zuani","location":"Karmai","address":"1 2nd Circle","industryType":"Banking"},
{"id":"a658abd5-7e76-4777-a5ba-405996218951","name":"Simeon Dionsetti","location":"Emin","address":"2 Lawn Way","industryType":"Logistics"},
{"id":"c78bd833-a22a-4e2d-b808-5db9539d5d08","name":"Ella Dunnan","location":"Kizema","address":"649 Colorado Plaza","industryType":"Logistics"},
{"id":"5211359c-4270-4e9b-a6e5-05be01e4991f","name":"Juliette McGauhy","location":"San Sebastián","address":"71 Bunker Hill Junction","industryType":"Logistics"},
{"id":"f6e952dc-9318-4986-81eb-94ebacd48437","name":"Ursala Crook","location":"Yanggu","address":"562 Quincy Center","industryType":"Banking"},
{"id":"78b99fde-54f1-4199-bf73-d7303ca7c874","name":"Chelsie Menichino","location":"Urdaneta","address":"9 Buhler Hill","industryType":"Logistics"},
{"id":"4d2fc83a-cf48-41f9-adf0-6b9c60de97d3","name":"Brodie Izod","location":"Koatas Lao","address":"68858 Mosinee Way","industryType":"Media"},
{"id":"596f0390-0c64-444c-b139-d746cd05dacf","name":"Alethea Nassi","location":"Kuching","address":"817 Hauk Pass","industryType":"Logistics"},
{"id":"50c81f51-7a4e-44ed-bef5-ea92d2ffad59","name":"Dominica Whetnell","location":"Sulengwaseng","address":"84046 Chinook Point","industryType":"Banking"},
{"id":"1b6f8f42-3247-45b9-8be1-88cb95ea8924","name":"Samantha Dilston","location":"Palangkaraya","address":"71 Little Fleur Terrace","industryType":"Logistics"},
{"id":"50bc8af7-31cd-498c-80bc-6f2beec72163","name":"Donny Dallon","location":"Shuiyang","address":"7776 Atwood Alley","industryType":"Retail"},
{"id":"4b103237-a71b-47f1-b136-e2bdab109ae5","name":"Syd Gowry","location":"Novi Vinodolski","address":"4 Express Street","industryType":"Insurance"},
{"id":"57706445-1c01-4ab0-a4e5-2052cb2b35e4","name":"Sander Corish","location":"Sieniawa Żarska","address":"42647 Reindahl Avenue","industryType":"Logistics"},
{"id":"1fb0327a-0136-4cca-9be7-c5c537d81584","name":"Zelig Hennemann","location":"Carvalho","address":"369 Packers Plaza","industryType":"Banking"},
{"id":"19b5faeb-2af2-4af6-b203-c4c830704d68","name":"Edouard Lutas","location":"Solnechnoye","address":"138 Graedel Drive","industryType":"Logistics"},
{"id":"1f898bef-c314-4ebc-827c-1a6f8e56adc9","name":"Willi Ferenczy","location":"Montreuil","address":"7 Debs Circle","industryType":"Banking"},
{"id":"d662a2cc-33a4-40c7-9319-17627e8db57b","name":"Athene Pitherick","location":"Dajalorong","address":"61204 Namekagon Lane","industryType":"Logistics"},
{"id":"ed202fa4-c657-4369-9f40-fd51da7b60eb","name":"Olag Naisey","location":"Swinford","address":"8066 John Wall Circle","industryType":"Logistics"},
{"id":"2113551c-3eae-4c0a-bd72-1f8ed8fc0f75","name":"Shem Swafield","location":"Czarnożyły","address":"8 Bunker Hill Avenue","industryType":"Logistics"},
{"id":"bf3b2b36-dc6b-42b3-ab5e-7a9738f4dcb5","name":"Chad Kob","location":"Sabana Grande de Boyá","address":"4 Green Hill","industryType":"Logistics"},
{"id":"7d03abd3-6fa0-4062-989e-356a2c7a0115","name":"Stesha Dix","location":"San Pablo","address":"1949 Continental Court","industryType":"Logistics"},
{"id":"983094af-c5da-4838-9e3b-3d3c5f2fe11f","name":"Lanette Spalls","location":"Langensari","address":"1 Starling Alley","industryType":"Banking"},
{"id":"8e8628c1-f7d7-45aa-ad5b-78fe6b91f561","name":"Erny Vasyushkhin","location":"Changping","address":"3 Petterle Parkway","industryType":"Banking"},
{"id":"40062d69-059e-4634-aec1-e2251cc78df1","name":"Mychal Peartree","location":"Idrija","address":"59 Hansons Street","industryType":"Banking"},
{"id":"6947ddfa-558f-4592-8333-1e7628053c4e","name":"Caitlin Hartas","location":"Huayllabamba","address":"6 Upham Place","industryType":"Banking"},
{"id":"9bd468b7-ce5e-4e9f-99f7-1bd39fdfa87a","name":"Janot Rawll","location":"Safi","address":"8 Debra Trail","industryType":"Banking"},
{"id":"d1d0ebba-583c-4c94-a526-56c010182965","name":"Alexio Exter","location":"Katrineholm","address":"43 Scoville Junction","industryType":"Logistics"},
{"id":"03d62925-d75c-4766-a9d1-72f2646c7a88","name":"Deni Burghill","location":"Mariestad","address":"14349 Walton Place","industryType":"Retail"},
{"id":"27b8728e-22b3-41c6-9754-adabcac63266","name":"Hashim Bernadon","location":"Dabancheng","address":"5240 Northwestern Terrace","industryType":"Logistics"},
{"id":"65360a7c-313d-4cff-b94f-1b9276f18606","name":"Gordan Evitts","location":"Weda","address":"83 Karstens Hill","industryType":"Logistics"},
{"id":"27b49bd5-1bfd-4eb0-bd57-da27a2116a29","name":"Moreen Fosher","location":"Aksu","address":"16292 Eastlawn Circle","industryType":"Logistics"},
{"id":"e7f53962-b274-41c2-8b43-b1b60a6f76af","name":"Towny Tours","location":"Cabo de Vila","address":"1967 Corben Place","industryType":"Banking"},
{"id":"d0875f09-9f69-431a-a657-22319913c521","name":"Sumner d'Arcy","location":"Irecê","address":"38 Duke Alley","industryType":"Logistics"},
{"id":"60b167d3-b766-43f4-a0cf-bcaffd5fc576","name":"Kelvin Hingeley","location":"Dadong","address":"334 Dorton Plaza","industryType":"Logistics"},
{"id":"5c44013d-01e0-404c-9106-055eebc1532b","name":"Freddie Gorringe","location":"Ciudad Bolívar","address":"84960 Hansons Pass","industryType":"Retail"},
{"id":"0ff44580-1a4c-4a27-ba93-ad680dc3195a","name":"Sancho Duddy","location":"El Retén","address":"20 Linden Street","industryType":"Banking"},
{"id":"158d1605-a422-4844-abcc-af384adeb4a3","name":"Issi Digan","location":"Dongqiao","address":"50560 East Court","industryType":"Banking"},
{"id":"b1ca31c5-b15e-43d7-845a-76331191bdb6","name":"Pansie Phipard-Shears","location":"Qiankeng","address":"6485 Tomscot Street","industryType":"Logistics"},
{"id":"eaf15d4f-2a93-451f-9c48-262794765ac1","name":"Camel Gurry","location":"Yinghai","address":"0 Pleasure Place","industryType":"Logistics"},
{"id":"ca6d5b9b-3d33-448c-9ffc-bdbf78c4c676","name":"Deidre Cardinal","location":"Enonkoski","address":"3730 Straubel Crossing","industryType":"Logistics"},
{"id":"bf9dab41-0942-467d-afde-b80046151c6b","name":"Barnabe Loveday","location":"Huadian","address":"6413 Fairview Drive","industryType":"Banking"},
{"id":"b7b7a4c2-10e3-405d-90dc-1e5ebaea6a40","name":"Danny Monelli","location":"Barra","address":"5 Lotheville Place","industryType":"Logistics"},
{"id":"2cab469f-8d43-4797-a8c4-e7aef9834a3a","name":"Ramonda Patershall","location":"Návsí u Jablunkova","address":"8 Farwell Trail","industryType":"Banking"},
{"id":"ecf3ed48-c462-4841-9a13-feaae9edf3e6","name":"Andonis Kettel","location":"Atamyrat","address":"200 Prentice Avenue","industryType":"Insurance"},
{"id":"c9880c17-874d-4c33-b19b-ac99bf70a721","name":"Stace Rowe","location":"São Domingos do Maranhão","address":"812 Vahlen Parkway","industryType":"Retail"},
{"id":"27cbaa85-02c4-4ea4-8417-1c0e8a037ba9","name":"Jonie Doge","location":"São Pedro do Estoril","address":"521 Sherman Court","industryType":"Insurance"},
{"id":"c8bdd582-57ef-4597-800f-886b4b991c30","name":"Parker Mullineux","location":"Heyou","address":"42763 Eliot Crossing","industryType":"Logistics"},
{"id":"647dd09a-e09b-4d9d-93ff-c387e7397fdb","name":"Fabe Massie","location":"Taboão da Serra","address":"84 Cottonwood Pass","industryType":"Logistics"},
{"id":"50c87f63-a4e3-425b-a2d5-79c1ebed2f87","name":"Ola Hulance","location":"Komsomolets","address":"5 Petterle Avenue","industryType":"Logistics"},
{"id":"9d32e7b4-7bfb-4e0e-bf70-4ef3b00064f6","name":"Trisha Dorrell","location":"Tynne","address":"79 Dorton Terrace","industryType":"Banking"},
{"id":"fac72595-c6f2-459c-ab5f-624315452ffd","name":"Caye Pelcheur","location":"Municipio de Copacabana","address":"142 Debs Circle","industryType":"Logistics"},
{"id":"507dcc4b-5bb6-4ae5-a0e2-f7ff0e302c9f","name":"Annadiana Brennen","location":"Chornobay","address":"4869 Heath Court","industryType":"Logistics"},
{"id":"54d2f823-1294-4569-8245-d10934c945bc","name":"Lusa Dawton","location":"Madur","address":"5 Calypso Drive","industryType":"Logistics"},
{"id":"7e20b688-8590-46c1-904e-b402654b9db7","name":"Tabb Bellringer","location":"Tam Bình","address":"70 Sachtjen Court","industryType":"Logistics"},
{"id":"22e22081-0b34-42ad-ab71-a0f1d9463773","name":"Chane Altofts","location":"Cancas","address":"0 Northfield Center","industryType":"Logistics"},
{"id":"7478071a-53b6-4009-b525-5996e54e5e9d","name":"Joelle O' Sullivan","location":"Ventersburg","address":"73 Valley Edge Road","industryType":"Logistics"},
{"id":"9d5d0eaa-6ab1-4668-9930-9bec6b146c5c","name":"Bron Heasly","location":"Heba","address":"75969 Moose Pass","industryType":"Logistics"},
{"id":"2190727a-bb1d-47fa-8c23-9f709d4cd373","name":"Quintus Gorger","location":"Cajacay","address":"08 International Parkway","industryType":"Insurance"},
{"id":"6c52c615-22e3-4744-8a3b-db3d7c92c666","name":"Donielle Sharville","location":"Santo Niño","address":"607 Vernon Hill","industryType":"Logistics"},
{"id":"1cac50e1-3cc7-444d-b4e9-0963a2bc8ce8","name":"Trina Doe","location":"Yujiawu","address":"36 Summit Court","industryType":"Logistics"},
{"id":"c936dec1-e88e-4051-8eca-fd29aede55ff","name":"Andrej Jandl","location":"El Hermel","address":"36 Ludington Alley","industryType":"Logistics"},
{"id":"06c119d5-8eb5-4712-838d-323c850594c4","name":"Cynthie Tosdevin","location":"Krasnoyarka","address":"52992 Rockefeller Parkway","industryType":"Media"},
{"id":"0d422d91-d338-4685-9581-45f85f6580be","name":"Broderick Marrison","location":"Zhaobei","address":"06892 Farmco Center","industryType":"Logistics"},
{"id":"821a14a5-6571-4bb4-b935-ac6f9e314030","name":"Ivory Burgon","location":"Shingū","address":"37 Stuart Plaza","industryType":"Banking"},
{"id":"e861c409-52ff-43be-ab88-9cca6e0327f0","name":"Vladamir Janicek","location":"Saraktash","address":"4488 Bartillon Park","industryType":"Insurance"},
{"id":"68f7476f-7b54-4ebb-82a2-9c1e8071ec92","name":"Violetta Westfalen","location":"Rožďalovice","address":"3227 Milwaukee Plaza","industryType":"Media"},
{"id":"ff9802fa-05d8-4396-a56b-031000bcedf5","name":"Kahlil Ovise","location":"Mitaka-shi","address":"72 Atwood Circle","industryType":"Insurance"},
{"id":"387eacd3-fecf-411a-be6f-bda223f9771d","name":"Thorsten Gilder","location":"Rodionovo-Nesvetayskaya","address":"2 Bartillon Road","industryType":"Logistics"},
{"id":"8c773d45-7d5d-4e4e-99bd-cdb3c18beef5","name":"Phelia Meredith","location":"Hobscheid","address":"581 Arapahoe Alley","industryType":"Logistics"},
{"id":"9432b1e7-1c8f-4e3c-a177-93bd465f6d35","name":"Ansley Mourge","location":"Alis","address":"920 Village Green Center","industryType":"Insurance"},
{"id":"c634057b-1668-4078-b9f4-c00e71ad079b","name":"Enrique Kornilov","location":"Vila Franca","address":"18199 Morning Trail","industryType":"Banking"},
{"id":"c2485d16-8074-46aa-b4ce-e5dc7b6ca6d8","name":"Janeen Dwerryhouse","location":"Mamasa","address":"753 Anderson Drive","industryType":"Insurance"},
{"id":"433510a0-845f-4e52-82da-2db9407e01c7","name":"Barnie Filinkov","location":"Yevpatoriya","address":"9332 Cambridge Pass","industryType":"Insurance"},
{"id":"675ee538-5b54-48f3-81f3-8ab47dd4e7c4","name":"Emmey McGeachie","location":"Martinópolis","address":"1 Dapin Lane","industryType":"Banking"},
{"id":"63f33d1d-e46c-431d-afeb-675b950ccf65","name":"Kakalina Crackel","location":"El Retiro","address":"7 Clyde Gallagher Parkway","industryType":"Logistics"},
{"id":"78d78fe1-0edd-4eda-8d68-9f0736286483","name":"Chelsie Farnes","location":"Kozyatyn","address":"35066 Sommers Court","industryType":"Retail"},
{"id":"c2b76d65-6fb7-4904-bce6-c9b8f3337caa","name":"Dede Lakes","location":"Alīgūdarz","address":"642 Oxford Road","industryType":"Banking"},
{"id":"ab99e61b-365c-4b9c-a2e8-384ee6f81a09","name":"Marsiella Eade","location":"Lāliān","address":"82 Walton Park","industryType":"Banking"},
{"id":"7207ac8f-f918-4e91-8d8e-f6106216b923","name":"Deny Kelley","location":"Oslo","address":"52 Warbler Lane","industryType":"Banking"},
{"id":"45e971dd-6950-4216-8e08-3a1f00879e7d","name":"Thadeus Kingh","location":"Los Santos","address":"5 Pennsylvania Alley","industryType":"Logistics"},
{"id":"a4a02203-4437-49f0-bb09-c55a2050828b","name":"Karil Wiskar","location":"Preston","address":"76225 Sugar Lane","industryType":"Banking"},
{"id":"3087f00c-29d5-40d4-974c-d2097291664f","name":"Maribelle D'Oyly","location":"Talagasari","address":"412 Green Drive","industryType":"Logistics"},
{"id":"3bfdd104-b67d-438f-a4ae-56e9ed1e1f8c","name":"Fran Pring","location":"Ndofane","address":"6 Mitchell Place","industryType":"Banking"},
{"id":"243aa6af-7be4-4a55-be01-25c3e69a45b3","name":"Jay Wellstead","location":"Coutada","address":"46685 Sunbrook Point","industryType":"Logistics"},
{"id":"ad10191a-0e68-48fa-891d-10b69b463399","name":"Cindy Wakeford","location":"Rangxi","address":"72614 Debra Park","industryType":"Insurance"},
{"id":"09d93bac-558b-41ae-a5de-ad76ba97972e","name":"Joelynn Passo","location":"Arıqıran","address":"933 Ludington Court","industryType":"Retail"},
{"id":"e2397484-499a-4e65-a8d8-c41d5436fb1e","name":"Lauralee Picheford","location":"Léchovo","address":"0 Bellgrove Alley","industryType":"Banking"},
{"id":"650cb8c7-7e10-4642-b06d-8bdc78bc49f3","name":"Gregor Jammet","location":"Linares","address":"4 Pleasure Center","industryType":"Logistics"},
{"id":"863cb2cf-933f-485b-986e-ae605c707762","name":"Ailee Ambrosetti","location":"Phong Điền","address":"7 Talmadge Trail","industryType":"Banking"},
{"id":"c58ec760-3459-43c7-8591-e0c5c835bc31","name":"Filippa Danielovitch","location":"Marquard","address":"777 Bunting Plaza","industryType":"Retail"},
{"id":"6db7756f-7b84-4d79-8845-480caec06bfa","name":"Nona Jozwicki","location":"San Narciso","address":"94 Daystar Hill","industryType":"Insurance"},
{"id":"6777bea9-9c8f-45f2-a757-36cb1daf2812","name":"Pansie Bonnyson","location":"Camgyai","address":"33168 Park Meadow Court","industryType":"Logistics"},
{"id":"90cb03f2-aea5-4942-8252-7cdff96b90b5","name":"Gaven Yakuntsov","location":"Wa’eryi","address":"80 Grim Trail","industryType":"Logistics"},
{"id":"c5767daf-9441-4810-befe-bf1523750b21","name":"Ernesta Duesbury","location":"Domont","address":"36593 Old Shore Court","industryType":"Media"},
{"id":"2bb4b78a-e1c3-412b-b3a3-dff05765cd08","name":"Pauletta Gershom","location":"Wąpielsk","address":"87507 Merry Way","industryType":"Banking"},
{"id":"23b25f43-6106-49fb-bfad-29844e92b4f4","name":"Tris Mattschas","location":"Sumberngerjat","address":"83 Farmco Parkway","industryType":"Logistics"},
{"id":"946a4b9e-a594-4f69-8698-411003789c08","name":"Hailey Matyugin","location":"Liufang","address":"5 Tomscot Avenue","industryType":"Insurance"},
{"id":"0b325f0b-d16d-4f41-94d2-fee95f1bdcf4","name":"Tally Caghy","location":"Yunlong","address":"62307 Fulton Alley","industryType":"Logistics"},
{"id":"f6d23e90-541d-4658-b919-8caad65d14f5","name":"Myrtie Bathow","location":"Dolega District","address":"5660 Killdeer Pass","industryType":"Banking"},
{"id":"0dda0f07-63b3-4e3d-82a2-809595103675","name":"Chariot Such","location":"Panjakent","address":"33 Moland Drive","industryType":"Banking"},
{"id":"3480eeed-f07f-4d4f-a3bb-63eacb5565d6","name":"Thorny Crigin","location":"Lagoa","address":"3296 Hallows Court","industryType":"Banking"},
{"id":"173ba94a-f178-4671-9846-0a3e5f280242","name":"Jody Kearle","location":"Nioumamilima","address":"74 Sachs Hill","industryType":"Banking"},
{"id":"3dec0d89-5b69-45a5-8da0-dfc3bbdd8ba7","name":"Dedra Devenish","location":"Fajões","address":"874 Weeping Birch Circle","industryType":"Logistics"},
{"id":"9fa6e629-9c9c-433f-af55-1b94e3036246","name":"Mag Petrillo","location":"Umeå","address":"6 Gerald Street","industryType":"Retail"},
{"id":"2cf3236f-5820-4291-bf9f-7accd26c13e8","name":"Adena Charrier","location":"Basseterre","address":"51729 Havey Plaza","industryType":"Logistics"},
{"id":"6550450a-b19e-4561-88ff-07b84ecfb20f","name":"Emylee Crandon","location":"Orléans","address":"2711 Pennsylvania Alley","industryType":"Insurance"},
{"id":"508738e7-3a5c-4278-9223-4a4e8955583c","name":"Myrtle Bunney","location":"Mankono","address":"11121 Doe Crossing Pass","industryType":"Banking"},
{"id":"6a4a7c40-fbb6-4895-85fa-b9e460ca9349","name":"Kit Inkster","location":"Bourg-en-Bresse","address":"02 Superior Point","industryType":"Logistics"},
{"id":"6e690f6a-8009-4b45-bc4e-00b34fe755e7","name":"Sayers Norwood","location":"Noginsk","address":"458 Jackson Park","industryType":"Banking"},
{"id":"2d2be0f6-0de0-4c7d-8ff8-c5f1ab428c5e","name":"Cristi Merfin","location":"Criuleni","address":"787 Derek Center","industryType":"Banking"},
{"id":"6d398847-4145-4090-9996-29a71b6349c1","name":"Leticia Rahill","location":"Zhouling","address":"946 Autumn Leaf Terrace","industryType":"Logistics"},
{"id":"e2c75914-de04-411e-966f-18559c91fa77","name":"Gilbertine Bratley","location":"Kāshmar","address":"18 Dapin Park","industryType":"Banking"},
{"id":"d3750d06-3e0e-4c32-a98a-e345928f1021","name":"Kessiah Gopsill","location":"Yuetang","address":"98823 Arrowood Way","industryType":"Banking"},
{"id":"af36f8ae-69b1-4328-bd29-d05ecc89d07b","name":"Cleon Cooke","location":"Huidong","address":"8745 Warbler Trail","industryType":"Logistics"},
{"id":"604c00bc-c523-4ebf-a5e9-31c29eba3960","name":"Avigdor Sterling","location":"Lyon","address":"798 Commercial Hill","industryType":"Banking"},
{"id":"2fa72bde-c1c3-4305-9b9e-7c9a7f1e0d35","name":"Ellynn Bengefield","location":"Yancheng","address":"190 Northland Trail","industryType":"Insurance"},
{"id":"85da2b3b-7b4d-4ac8-8038-c9b8dba15321","name":"Queenie Cammomile","location":"Mopti","address":"12 Bay Trail","industryType":"Logistics"},
{"id":"c6f44442-5420-47db-9c16-fd896ec3b939","name":"Clarine Lackney","location":"Puerto Boyacá","address":"747 Ronald Regan Point","industryType":"Banking"},
{"id":"a63f9bf2-b809-4eac-bb84-04d919b5832f","name":"Georgie Bottoms","location":"Grybów","address":"99406 Ruskin Pass","industryType":"Banking"},
{"id":"8ad94b40-81f9-4934-9e5a-cb879b8755dc","name":"Harlie Mully","location":"Fada N'gourma","address":"63 Arizona Junction","industryType":"Logistics"},
{"id":"244c02fe-f3bf-4008-92b8-9cc98f9d8ff6","name":"Abel Bilbery","location":"Yangji","address":"36 Fieldstone Trail","industryType":"Logistics"},
{"id":"144814b2-e73e-4127-941f-037333b79014","name":"Joyce Nice","location":"Dongshui","address":"77344 Mockingbird Way","industryType":"Logistics"},
{"id":"d53188c7-5c15-4e61-b7bd-b634fa4cb1ac","name":"Maynard Prayer","location":"Sirnarasa","address":"2 Stang Lane","industryType":"Insurance"},
{"id":"7ab23817-7fb4-4cd8-b479-081a76c941b3","name":"Matilde Buxsy","location":"Albania","address":"75 Cambridge Trail","industryType":"Logistics"},
{"id":"bbaf37ef-820e-4d4b-929f-9d78a447bf56","name":"Dolley Gitting","location":"Doropayung","address":"65876 Heffernan Trail","industryType":"Logistics"},
{"id":"5073bf59-7159-4444-bf1f-3ba503bdbe8f","name":"Swen Dundon","location":"Ramanavichy","address":"95 Stang Alley","industryType":"Logistics"},
{"id":"6d9ba93c-5d06-4f5f-a83a-85182bf0f4a3","name":"Aron Abbey","location":"Bakung","address":"414 Gale Drive","industryType":"Logistics"},
{"id":"0b8b93b0-3382-4de2-9e61-15dd162296c8","name":"Lolly Keme","location":"Sarakhs","address":"1 5th Terrace","industryType":"Logistics"},
{"id":"1935ae0f-09a9-465f-915c-2ac6f4d30ab0","name":"Bernardo Skym","location":"Villa Lugano","address":"542 Wayridge Way","industryType":"Logistics"},
{"id":"ee1ed01c-da03-4233-9d08-566215c1b151","name":"Forster Hurling","location":"Gandekan","address":"28691 Becker Place","industryType":"Media"},
{"id":"e31f2650-484b-4e31-a36d-030845ad0209","name":"Anson Gatesman","location":"Jīwani","address":"7832 Golf Course Parkway","industryType":"Logistics"},
{"id":"765c8106-3c19-45d2-a3f9-4ec0ea505163","name":"Gilbertine Geke","location":"Kotor","address":"90804 Lerdahl Lane","industryType":"Banking"},
{"id":"734e2219-2dee-4994-8e94-b5894a7cb5a0","name":"Gayelord Treeby","location":"Yingde’er","address":"2729 Morningstar Court","industryType":"Insurance"},
{"id":"cb24e8ff-5e3b-4f3f-84e8-80c0041295f0","name":"Pepillo Blodgett","location":"Andop","address":"79572 La Follette Drive","industryType":"Logistics"},
{"id":"ebc3f80d-46bc-4c04-8153-c0902930f63f","name":"Holli Yule","location":"Beigong","address":"1 Cordelia Hill","industryType":"Logistics"},
{"id":"8d9e122c-18e8-4892-8095-7e29c8dbedf2","name":"Jasmine Burdis","location":"Laxiong","address":"1269 Fair Oaks Hill","industryType":"Logistics"},
{"id":"f1cb9e1d-7c26-4855-9a67-c3e478401b8e","name":"Jonas Sakins","location":"Tsalgar","address":"9 Kipling Hill","industryType":"Logistics"},
{"id":"2663e93b-dbce-4b55-b2d2-f7cece867880","name":"Carmela Lamberti","location":"Xiangfu","address":"07908 Quincy Way","industryType":"Banking"},
{"id":"8e7086d2-45ca-4827-bea4-510c94d3f712","name":"Tann Abeles","location":"Mochishche","address":"1678 Manufacturers Road","industryType":"Banking"},
{"id":"0621e62f-2016-4919-8667-523ecbbc1020","name":"Phillida Pucknell","location":"Yemva","address":"2204 Village Park","industryType":"Logistics"},
{"id":"8ce0eff3-5334-4f1d-81f3-bd23e75fdaf4","name":"Cara de Marco","location":"La Victoria","address":"6841 Tony Crossing","industryType":"Banking"},
{"id":"cb14989a-32eb-4413-bd56-a575af49b6d2","name":"Vonnie Stedson","location":"Wonorejo","address":"12489 Main Terrace","industryType":"Logistics"},
{"id":"dba5bffc-a6ac-4f1f-8518-389e59045d0e","name":"Jehanna Du Barry","location":"Jugezhuang","address":"13 1st Trail","industryType":"Insurance"},
{"id":"0a37b384-6830-413f-b280-40a4fc6976bb","name":"Sydelle Titford","location":"Paokmotong Utara","address":"8 Longview Avenue","industryType":"Insurance"},
{"id":"bcc397af-6da1-4c19-949e-cd11ea17e99f","name":"Herman Aleso","location":"Awat","address":"72 Bashford Court","industryType":"Logistics"},
{"id":"b15583b3-57bd-4120-8b4e-6f0d711b34be","name":"Jilli Caulcott","location":"Namyangju","address":"6785 Marcy Hill","industryType":"Media"},
{"id":"4478040e-d2b1-4528-a413-6bdfc549dfa0","name":"Demetrius Bromehed","location":"Kungsbacka","address":"21 Bluestem Street","industryType":"Logistics"},
{"id":"cc24d94a-3830-4bfd-ae36-e048327d93a3","name":"Rebeca Starsmeare","location":"Watrous","address":"920 Melody Parkway","industryType":"Insurance"},
{"id":"f63bcaf3-de2b-49b9-bca6-e380ea9e5ade","name":"Hana Schonfeld","location":"Mata","address":"440 Larry Plaza","industryType":"Retail"},
{"id":"edbc31e7-729b-4953-a862-1b0033f70990","name":"Eliza Shacklady","location":"Guanmian","address":"697 Dryden Circle","industryType":"Logistics"},
{"id":"2a161c0c-e076-46f8-9442-dff36c0e3ffc","name":"Benny Kordova","location":"Šavnik","address":"7 Eastlawn Alley","industryType":"Logistics"},
{"id":"33af6edc-13eb-402f-a7ac-139043e03620","name":"Marshal Denisyev","location":"Taizi","address":"76382 Leroy Park","industryType":"Logistics"},
{"id":"ed10d292-6604-441d-95ed-eb77a0c4cfc9","name":"Sandro Santus","location":"Yujiawu","address":"32 Bayside Place","industryType":"Logistics"},
{"id":"d4460d85-45a4-4cf3-a44c-c7800f0348ce","name":"Germaine Blyth","location":"Měcholupy","address":"4 Montana Avenue","industryType":"Logistics"},
{"id":"70de89fb-af5f-43ea-a4e1-683840a31dc3","name":"Shena Lindberg","location":"Sundbyberg","address":"5 Sycamore Terrace","industryType":"Logistics"},
{"id":"82031d15-ab26-449c-b938-f4d88753b5b3","name":"Joey Wyon","location":"Florida","address":"9182 Pawling Alley","industryType":"Logistics"},
{"id":"9ed58810-5bbb-4ed6-9390-6d7023a638e7","name":"Mersey Carnalan","location":"Nueva Helvecia","address":"134 Weeping Birch Avenue","industryType":"Banking"},
{"id":"85b5449a-60d8-4285-93dc-fe926216025f","name":"Edythe Cronchey","location":"Taiyu","address":"638 Arizona Place","industryType":"Logistics"},
{"id":"d02c27dd-7525-49dd-afbe-44ac1a395920","name":"Lorens Ellcome","location":"Yuanmen","address":"96824 Forest Run Pass","industryType":"Retail"},
{"id":"a42ef8a1-2b6e-457d-b894-3b620d0df16d","name":"Bruis McAusland","location":"Brangsi","address":"573 Wayridge Circle","industryType":"Logistics"},
{"id":"c805c341-1dbb-4f30-b40f-80dcb4a40257","name":"Adora Berzins","location":"Invermere","address":"8 Graceland Alley","industryType":"Logistics"},
{"id":"077d3733-d90c-4ba8-8076-2245ff90fe0e","name":"Cale Caselick","location":"Tanggulangin","address":"32660 Melvin Lane","industryType":"Insurance"},
{"id":"3364a807-3d18-4d04-94de-634ae62db75b","name":"Annie Kenyam","location":"Cerinza","address":"28 Kipling Pass","industryType":"Insurance"},
{"id":"ae4d9499-8532-4d21-b8f3-91dffaac83e6","name":"Keeley Piscopo","location":"Gudermes","address":"73 Butterfield Drive","industryType":"Logistics"},
{"id":"107c94bb-8b02-487d-b40a-28b54abe8ef8","name":"Trista Girardeau","location":"Songbo","address":"342 Crest Line Park","industryType":"Banking"},
{"id":"01d5c04d-6ef9-40d0-888c-32fd24bc4ed1","name":"Jillane Petyanin","location":"Cogreg Wetan","address":"0 Hauk Way","industryType":"Logistics"},
{"id":"e535f100-5351-40f9-a007-01a5552008fa","name":"Miquela Gimbrett","location":"Szubin","address":"2 Crescent Oaks Way","industryType":"Banking"},
{"id":"93793953-d409-4d9b-8f66-aa08d68812a8","name":"Miguela Farfoot","location":"Orlando","address":"46 Washington Road","industryType":"Banking"},
{"id":"7a4da1b1-a857-4281-a226-fe5a7915dc3d","name":"Moll Knewstubb","location":"An Nāşirah","address":"14 Hollow Ridge Point","industryType":"Logistics"},
{"id":"bd89b56f-7897-42d1-a68d-0ec41b48242e","name":"Walther Peaseman","location":"Bayramaly","address":"3 Anniversary Center","industryType":"Logistics"},
{"id":"18462cb3-89be-449f-bce1-c510457a1866","name":"Blancha Tingley","location":"Lampuyang","address":"635 Stephen Street","industryType":"Banking"},
{"id":"93446053-ac71-4d7f-afdc-4aaa98f138c5","name":"Oran Rackam","location":"Hienghène","address":"8123 Oakridge Parkway","industryType":"Logistics"},
{"id":"0d3dd544-8665-42ea-b4ff-0026b88bccc0","name":"Norma Rudgerd","location":"Posse","address":"09 Anderson Place","industryType":"Banking"},
{"id":"2b182378-6a71-4415-a066-4695407bfaf0","name":"Allissa Pawnsford","location":"Johanneshov","address":"8 Dixon Way","industryType":"Logistics"},
{"id":"86da4dad-063d-444d-9d33-0948d0558870","name":"Roderic Beccles","location":"Chiţcani","address":"395 Spaight Point","industryType":"Logistics"},
{"id":"9689fdd0-e13e-4114-a318-e92eecf1fe4e","name":"Revkah Lowman","location":"Bertoua","address":"4 Graedel Avenue","industryType":"Banking"},
{"id":"ab213b9d-8d04-4b1c-abb0-a288034e8d78","name":"Eadmund Kingerby","location":"Palauig","address":"272 Maywood Junction","industryType":"Logistics"},
{"id":"73b9f00a-2433-4e39-81d2-e414dcdae122","name":"Lillis Tottle","location":"Uttaradit","address":"915 Grim Alley","industryType":"Insurance"},
{"id":"0cbab25a-8511-48a7-9256-a900b34bbb7d","name":"Cletis Veldens","location":"Liushun","address":"559 Amoth Court","industryType":"Logistics"},
{"id":"d94bd4eb-3288-4e3f-a1fc-a3f4bcacb582","name":"Lynne Luetkemeyer","location":"Mūḩ Ḩasan","address":"36504 Vahlen Circle","industryType":"Banking"},
{"id":"94178bd4-ec65-4bd1-a2eb-11188a80b09a","name":"Joy Ughini","location":"Irkutsk","address":"5 Kennedy Court","industryType":"Logistics"},
{"id":"a28a4596-e0d9-4f1d-b7bc-bb68df65df28","name":"Ealasaid Goomes","location":"Kalinovskoye","address":"40 Larry Drive","industryType":"Logistics"},
{"id":"7a8cdc8e-edc3-409a-8d51-1da658a84452","name":"Deane Upfold","location":"Makato","address":"623 Caliangt Lane","industryType":"Media"},
{"id":"b4f3acf8-8428-4b85-9d14-f2bdd280cb4e","name":"Barb McCleod","location":"Daohe","address":"107 Fulton Place","industryType":"Logistics"},
{"id":"61ab0dc8-12da-4dc3-8537-f5c5cd6e2415","name":"Welch Wogden","location":"Santa Maria","address":"12 Hansons Road","industryType":"Media"},
{"id":"0e78036b-eb64-46d4-b242-62ef3b21fd9b","name":"Giffy Polon","location":"Kumlinge","address":"084 Bunting Parkway","industryType":"Logistics"},
{"id":"a4718f8a-3e3a-402c-8124-db53dafc6a7c","name":"Susana Seman","location":"Pucangkrajan","address":"2131 Banding Alley","industryType":"Banking"},
{"id":"fc756550-8f32-499d-aa13-abcace594e46","name":"Maurie Scarsbrooke","location":"Główczyce","address":"7395 Sachs Point","industryType":"Retail"},
{"id":"0d2c5d2e-84fe-41eb-8192-01b94dfda967","name":"Kingsley Whipple","location":"Banyumas","address":"02235 Lotheville Trail","industryType":"Insurance"},
{"id":"e151b43a-1d80-477b-8eb0-1504b62e51d7","name":"Galvan Sothern","location":"Tegalrejo","address":"4078 Blue Bill Park Hill","industryType":"Logistics"},
{"id":"31c20dc5-9ed0-4b97-9146-26f10e81d72d","name":"Gerry McLaine","location":"Savitaipale","address":"2032 Vernon Way","industryType":"Retail"},
{"id":"40f15a10-4a4d-4389-8c0d-3786e7da9215","name":"Boycie Widdowes","location":"Akhfennir","address":"601 8th Way","industryType":"Logistics"},
{"id":"bebf4d74-8351-453a-a564-5d84ce2449a6","name":"Ranice Lomasny","location":"Jeblog Satu","address":"767 Shelley Hill","industryType":"Logistics"},
{"id":"4f668db1-7e2a-4e5d-a50d-c3a7df542fcc","name":"Germain Norkutt","location":"Al Jawf","address":"5 Upham Junction","industryType":"Logistics"},
{"id":"2d7af610-b1fe-484d-846d-d4dc4b9e66f0","name":"Garik Peagram","location":"Campamento","address":"1 Tennessee Place","industryType":"Banking"},
{"id":"08a7f022-8afa-409c-9b10-0c05b71de7fc","name":"Arv Leale","location":"Yantak","address":"551 Corben Park","industryType":"Banking"},
{"id":"0ecac6de-8d4e-4be8-a252-35056dcaa4a7","name":"Teodor Bridge","location":"Monastirákion","address":"0 Westerfield Street","industryType":"Logistics"},
{"id":"20a664f3-87db-4495-9060-ef0f7d425e11","name":"Pace Lampl","location":"Niquelândia","address":"528 Moland Road","industryType":"Logistics"},
{"id":"02c8cce8-02fd-4714-9c0b-518a0fd8c846","name":"Micheil Chattell","location":"Xiaocheng","address":"06 Warner Drive","industryType":"Logistics"},
{"id":"b0a0dbdf-cd08-4c87-ae46-a82a83c52b2d","name":"Ab Estcot","location":"Romorantin-Lanthenay","address":"9 Toban Court","industryType":"Banking"},
{"id":"6de61c15-91e7-4a89-bc72-bc92c7ee11ee","name":"Henrie Summerside","location":"Ārifwāla","address":"18 Riverside Point","industryType":"Banking"},
{"id":"20e9797a-7235-43ba-9485-4a79a62fdfa2","name":"Ara Melloy","location":"Pensacola","address":"6692 Kenwood Point","industryType":"Banking"},
{"id":"efb8b4be-9964-4f90-a00a-3bde2da91cec","name":"Allyson Vecard","location":"Kalmunai","address":"53 Sutherland Crossing","industryType":"Logistics"},
{"id":"ffd98fff-edfb-4bb9-b9f3-9861714e10dd","name":"Agnese Liggens","location":"Mondoteko","address":"098 Schurz Street","industryType":"Logistics"},
{"id":"6c8470dd-97c4-4fa6-bb99-46f6b61ef34f","name":"Clara MacMillan","location":"La Libertad","address":"9 Buhler Park","industryType":"Logistics"},
{"id":"0fcd2f49-8034-4458-a919-47a982c6e160","name":"Brinna Cram","location":"Tofa","address":"902 Corben Drive","industryType":"Insurance"},
{"id":"5d048300-9659-40f8-893d-6c3772c10c1c","name":"Laryssa Tassell","location":"Nanjie","address":"74 Moulton Place","industryType":"Banking"},
{"id":"d6db9335-a8bb-4421-aedc-145c32b5d4af","name":"Brody Scritch","location":"Putrajaya","address":"7 Waywood Circle","industryType":"Logistics"},
{"id":"0a54aaf5-7030-4aa8-ab6b-79b58fba0cbf","name":"Eugenie Masse","location":"Saint-Cloud","address":"09 Starling Crossing","industryType":"Logistics"},
{"id":"0826ec13-79a8-4a58-b49a-52f19e84026a","name":"Enrichetta Kelshaw","location":"Berlin","address":"10 Esker Terrace","industryType":"Insurance"},
{"id":"a8509946-91b6-4787-a859-81df4d04c614","name":"Dov Cornforth","location":"Sandakan","address":"83 Luster Plaza","industryType":"Logistics"},
{"id":"e25ace35-f5f3-4515-8cfa-35682adeefc0","name":"Adelbert Eveleigh","location":"Kamina","address":"12 South Parkway","industryType":"Insurance"},
{"id":"b3ae9b98-00a5-4c29-b639-ae6e4e649d31","name":"Kennie Dunley","location":"Xinshao","address":"0652 Talisman Way","industryType":"Banking"},
{"id":"12f6203a-f150-45f7-b03b-93682827eeea","name":"Rodd Tarbett","location":"Nuevo Arraiján","address":"63449 Dorton Crossing","industryType":"Banking"},
{"id":"04c33fae-be9b-43a6-9e71-db71e15fe53c","name":"Mercie O'Lenechan","location":"Hukeng","address":"691 Twin Pines Pass","industryType":"Media"},
{"id":"47bb134d-32bd-4dc3-b6ef-cbc9897d2ca9","name":"Nissy Noades","location":"Kadumelati","address":"41754 Commercial Avenue","industryType":"Logistics"},
{"id":"23b354f7-87e0-42ba-b269-802ee024c9e9","name":"Claire Tolson","location":"Ganlin","address":"6540 Cody Parkway","industryType":"Logistics"},
{"id":"cc68d078-a3ae-46a5-b61c-6f766e5f055f","name":"Averil Christie","location":"Saitama","address":"3 Toban Court","industryType":"Insurance"},
{"id":"4d96a95d-1ca5-4895-907b-5df1dccf5803","name":"Randall Burkhill","location":"Boyany","address":"1 Nevada Drive","industryType":"Banking"},
{"id":"afa02b46-e327-42ee-997b-7bf7f753be43","name":"Charmion Jeffry","location":"Ruo","address":"0 Sommers Hill","industryType":"Logistics"},
{"id":"43616928-1147-4e95-b400-738059aac461","name":"Brigitte Dovington","location":"Acacías","address":"92724 Northland Alley","industryType":"Logistics"},
{"id":"f185f04d-1281-4d0b-b096-a5ddd4485ff2","name":"Felicdad Harmar","location":"Thị Trấn Quán Lào","address":"24 Shoshone Trail","industryType":"Logistics"},
{"id":"7e7e616a-5bc0-4441-b095-6c0b5f531277","name":"Elene Tincombe","location":"Padangguci","address":"259 Saint Paul Center","industryType":"Banking"},
{"id":"72baac3d-e7c4-4460-8ad9-9589de169e04","name":"Patrizio Korbmaker","location":"Leramatang","address":"55290 Victoria Terrace","industryType":"Logistics"},
{"id":"b89f6079-2e85-42be-a276-5be6d30d80e4","name":"Boone de Savery","location":"Songdong","address":"062 Hintze Alley","industryType":"Insurance"},
{"id":"5fb36808-c77c-49b4-8011-3e6aba092bcc","name":"Kacey Brunke","location":"Chixi","address":"488 International Lane","industryType":"Logistics"},
{"id":"a7408cf5-94cf-4e2a-8713-30649e5bc70e","name":"Ottilie Behrens","location":"Korotych","address":"189 Vermont Place","industryType":"Logistics"},
{"id":"f3f6b7ce-d1fa-4ee9-a146-0a768d8bd003","name":"Gracia McCourtie","location":"Dugulubgey","address":"0 Blaine Drive","industryType":"Banking"},
{"id":"86ea31ae-662b-49dc-9864-894afb6923ed","name":"Waylan Ruoff","location":"Sarrebourg","address":"63 Quincy Plaza","industryType":"Banking"},
{"id":"d4c3f26a-75ab-4571-9eff-d55da5f78fc5","name":"Saudra Crusham","location":"Sattahip","address":"5547 Sherman Junction","industryType":"Banking"},
{"id":"b0775d1f-b193-4d66-bb20-f767caaa436e","name":"Tailor McAughtrie","location":"Kaavi","address":"695 Fuller Center","industryType":"Logistics"},
{"id":"b81548e6-8be9-418f-b47e-239ba3e9694c","name":"Windy Danniell","location":"Sukaraja","address":"4 Hoepker Center","industryType":"Logistics"},
{"id":"89831aa2-1c82-46df-8ee7-e662c9d3a98c","name":"Isak Bottomore","location":"Primorsko","address":"6408 Northland Plaza","industryType":"Retail"},
{"id":"7cb51a2c-aa79-4caf-a41e-06bef5e1c425","name":"Tudor Kesby","location":"Cuozheqiangma","address":"396 Mendota Plaza","industryType":"Retail"},
{"id":"258b3790-0b78-43f9-a8ab-8b66f87c1e16","name":"Cleveland Filgate","location":"Ticrapo","address":"47288 Fisk Center","industryType":"Logistics"},
{"id":"a8426447-9db4-473d-81f5-2c2c8de938dc","name":"Mehetabel Dionisetti","location":"Skärhamn","address":"951 Debs Lane","industryType":"Logistics"},
{"id":"97bb88a0-835a-454f-a0ea-91308eb3cc85","name":"Gil Hutcheon","location":"Longshan","address":"8 Myrtle Park","industryType":"Banking"},
{"id":"2aafeb87-4776-41b6-8eec-24859939d813","name":"Waverley Cast","location":"Kindu","address":"0 Raven Avenue","industryType":"Banking"},
{"id":"7d9641ee-911e-43c6-a218-c4a92a02c468","name":"Anselm Norcott","location":"Krajan Puru","address":"798 Macpherson Lane","industryType":"Logistics"},
{"id":"666ade35-c39a-4a92-91f3-c13d8ee1ef5c","name":"Alberta Linneman","location":"Al Metlaoui","address":"88 Grasskamp Pass","industryType":"Logistics"},
{"id":"8bedfc44-716c-4f74-830c-f7e15a197b5f","name":"Kalle Tommis","location":"Dnipryany","address":"29 Victoria Hill","industryType":"Logistics"},
{"id":"0736d765-542b-4cfd-89be-20f171a4f900","name":"Wakefield Beddis","location":"Hagonoy","address":"62 Goodland Crossing","industryType":"Logistics"},
{"id":"75212dfd-a802-4b73-a905-7857b908efff","name":"My Klugman","location":"Sidayu","address":"7 Kropf Pass","industryType":"Insurance"},
{"id":"8b747e23-2d81-4bd8-ab0a-5739df35fe11","name":"Quintilla MacCole","location":"Sūq Sibāḩ","address":"75 Duke Crossing","industryType":"Banking"},
{"id":"e4175faf-9273-4ddc-b56b-199aa8829209","name":"Stacey Pappin","location":"Dobra","address":"72889 Thompson Street","industryType":"Banking"},
{"id":"853f7933-5b1c-4702-a738-761988fc3315","name":"Fianna Breawood","location":"Mazār-e Sharīf","address":"57 Rieder Street","industryType":"Insurance"},
{"id":"d565040c-3226-4e62-b6fd-be12402e73e0","name":"Lorri Love","location":"Mehtar Lām","address":"0356 Steensland Parkway","industryType":"Logistics"},
{"id":"2f564ef0-c8e4-417c-aafa-8027fed024c1","name":"Roth Ference","location":"Khanabad","address":"76 Cody Pass","industryType":"Banking"},
{"id":"a83eba32-e27e-4dcc-96a7-bed6d0ba2f6c","name":"Atlante Buttle","location":"Santa Cruz do Capibaribe","address":"558 Steensland Drive","industryType":"Banking"},
{"id":"60ecbd7e-eb76-4edd-ad42-14249a71fe21","name":"Mame Nottle","location":"Duki","address":"3493 Coolidge Trail","industryType":"Banking"},
{"id":"41bf27f1-68b9-4784-9289-4efc0525a961","name":"Perceval McGraffin","location":"Rochester","address":"1 Anthes Crossing","industryType":"Logistics"},
{"id":"e07285d5-500e-4623-9f8a-8595e2e6ba12","name":"Meridith Casol","location":"Magrath","address":"5784 Ridge Oak Way","industryType":"Logistics"},
{"id":"e42c7f09-3102-427a-b173-562ed1016556","name":"Penni Olin","location":"Pitangueiras","address":"2 Nelson Point","industryType":"Logistics"},
{"id":"be77660e-1f85-404e-834a-d9355ff03248","name":"Lotti Bresson","location":"Mangli","address":"9 Bobwhite Way","industryType":"Insurance"},
{"id":"32809288-5db7-4988-81ec-9bb49bbcfe16","name":"Martie Pengelley","location":"Freiburg im Breisgau","address":"73922 Eggendart Avenue","industryType":"Banking"},
{"id":"a94184f2-a3b1-4e76-8048-23ea9fb0030d","name":"Ainslee Learmount","location":"Quemú Quemú","address":"360 Elgar Alley","industryType":"Media"},
{"id":"82ee67a1-327e-4da0-8894-1bf645ff59c8","name":"Hanni Stihl","location":"Tangwang","address":"866 Raven Crossing","industryType":"Retail"},
{"id":"da74ebb8-05f0-45e8-8106-b69b6ad45101","name":"Demetrius Barette","location":"Illela","address":"4227 Eastlawn Avenue","industryType":"Logistics"},
{"id":"0ceea646-dbdf-45b6-9ca0-030f5e4c91b4","name":"Codi Wharin","location":"Pamotan","address":"1876 Ronald Regan Center","industryType":"Banking"},
{"id":"0defaff8-6f06-40ac-b6d1-ea63caa297dc","name":"Lauryn Sandbach","location":"Mojolampir","address":"261 Sachtjen Drive","industryType":"Retail"},
{"id":"e4cbf48f-aa54-4261-8add-3b17907e9d20","name":"Bruis Verrick","location":"Lyskovo","address":"5 Sycamore Way","industryType":"Banking"},
{"id":"a4ee7207-dfe2-44fe-8123-7bc39aede6dc","name":"Dmitri Allsep","location":"Piritiba","address":"671 Mandrake Alley","industryType":"Logistics"},
{"id":"224942b8-ab4c-4456-b759-074b309779ef","name":"Rufus Upstone","location":"Tambak","address":"7187 Anderson Hill","industryType":"Banking"},
{"id":"4a5e89a5-a33c-4221-8209-686d96331721","name":"Oates Luttger","location":"Yatunpu","address":"0 Reindahl Street","industryType":"Logistics"},
{"id":"35b704c4-87ec-4662-9545-d80a179a0ce4","name":"Hattie Westmancoat","location":"Sondo","address":"11 Sundown Drive","industryType":"Logistics"},
{"id":"6e65a9c6-3e2d-4311-b47f-e3061da21a3b","name":"Bruce Deyes","location":"Jintan","address":"501 Stone Corner Terrace","industryType":"Logistics"},
{"id":"b816f02d-f69c-4540-8eea-97fc010b2a7a","name":"Stephine Robertot","location":"Novovasylivka","address":"9 Graedel Place","industryType":"Banking"},
{"id":"b0b4de16-d19e-4dd6-b757-e29a8629e944","name":"Tracee La Croce","location":"Vyshneve","address":"901 Golden Leaf Hill","industryType":"Logistics"},
{"id":"5e6c2c9b-4215-4cb6-9073-cc0ae044cb3c","name":"Giulia Mallock","location":"Hayan Hudong","address":"63 Hagan Circle","industryType":"Banking"},
{"id":"421926f1-b5e3-47f1-ade8-4ede846d92b4","name":"Kerrie Jarad","location":"Zhuji","address":"1 Cambridge Road","industryType":"Banking"},
{"id":"ad0a13b7-2295-4894-9849-56564f3e3f47","name":"Carola Virr","location":"Sanlei","address":"8907 Emmet Street","industryType":"Logistics"},
{"id":"aac41342-fcef-44bd-9960-90c5e7e2ddaa","name":"Rowe Mauchline","location":"Huxiaoqiao","address":"7561 Pepper Wood Street","industryType":"Logistics"},
{"id":"14871c5c-fc6b-4039-9151-56b69681d4d6","name":"Aryn Danniell","location":"Yanzhou","address":"1525 Vermont Park","industryType":"Retail"},
{"id":"86f0479c-e5a9-497d-9345-db38396ce551","name":"Charissa Witton","location":"Magbay","address":"4 Doe Crossing Alley","industryType":"Logistics"},
{"id":"1e7032e0-ab8b-4251-9488-99c3d88e991c","name":"Sibyl Blunsum","location":"Tolkmicko","address":"9696 Haas Trail","industryType":"Media"},
{"id":"e97537f7-b754-4e2f-895e-8fa309036fc3","name":"Ericha Simak","location":"Maymana","address":"8 Waxwing Plaza","industryType":"Insurance"},
{"id":"ad9a65b0-b5d0-4337-9194-748a8aefd100","name":"Ericha Stroulger","location":"Wucheng","address":"21896 Atwood Place","industryType":"Retail"},
{"id":"dcb9c7cb-6735-48c9-a965-2c5063eacabe","name":"Trip Holdey","location":"Lappi","address":"7 Moland Circle","industryType":"Media"},
{"id":"d9d1745a-1bea-4254-94a0-4a2a5c98d906","name":"Bucky Guido","location":"Guarapari","address":"106 Holy Cross Terrace","industryType":"Logistics"},
{"id":"d6a48ec2-ffe7-4a8b-b5e3-de8928bbaeab","name":"Norene Palethorpe","location":"Puente Nacional","address":"35411 Harper Park","industryType":"Logistics"},
{"id":"58bad9b3-2471-42a8-aec0-b62a06df0b47","name":"Jo Pratton","location":"Nanfeng","address":"20 Southridge Trail","industryType":"Logistics"},
{"id":"214558fb-e009-42c1-8893-a1299a2f6229","name":"Melitta Gobert","location":"Brailiv","address":"5 Spenser Way","industryType":"Insurance"},
{"id":"caa3c801-e6df-4145-b099-d21ef682759e","name":"Nicolina Lorait","location":"Abha","address":"581 Buell Place","industryType":"Banking"},
{"id":"fa809a32-a8bc-4a58-903b-ef0cdd4f5eab","name":"Dane Woodrough","location":"Kawanishi","address":"693 Del Mar Court","industryType":"Insurance"},
{"id":"6a82c591-3d64-4cd2-9982-3497ae94af7e","name":"Wadsworth Gerardot","location":"Mingyuedian","address":"4 Birchwood Court","industryType":"Banking"},
{"id":"cc41e669-3de7-469a-94d2-34fb28f845b4","name":"Hailee Eary","location":"Guebwiller","address":"4053 Northport Hill","industryType":"Logistics"},
{"id":"1e9a53f5-56a5-410f-8a30-a0e51ee1a947","name":"Karylin Bispham","location":"Cut-cut Primero","address":"0 Sage Circle","industryType":"Logistics"},
{"id":"05a3b2c4-12e6-4b29-8a67-a966fab5f401","name":"Devora Stuther","location":"Pathum Thani","address":"8 Redwing Center","industryType":"Logistics"},
{"id":"dfb2618f-9502-44d7-83d3-1c987411388f","name":"Latisha Zanazzi","location":"Aku","address":"9 Cody Junction","industryType":"Insurance"},
{"id":"6bd90a66-6da6-44cb-9614-904c7224e969","name":"Ignazio Wrathmall","location":"Lisala","address":"406 Chinook Avenue","industryType":"Logistics"},
{"id":"514e7944-492e-4416-a683-dbd0836fe251","name":"Tandi Warlawe","location":"Khūgyāṉī","address":"63180 Stuart Street","industryType":"Insurance"},
{"id":"0469e1ea-a934-486c-bac1-2e16604e9196","name":"Alyosha Janowski","location":"Arevashogh","address":"2 Pine View Point","industryType":"Logistics"},
{"id":"27bbc4e7-3baf-4894-b5d7-0459d6356f88","name":"Dennie Kirsopp","location":"Chunyang","address":"938 Warbler Terrace","industryType":"Logistics"},
{"id":"066dc6a2-50f4-4a54-bfa3-428a5c9cdb59","name":"Dannye Whimpenny","location":"Oklahoma City","address":"11 High Crossing Court","industryType":"Insurance"},
{"id":"cd4918fc-4a6c-4c25-8b42-16d9c783c443","name":"William Neicho","location":"Songculan","address":"32055 Kim Trail","industryType":"Logistics"},
{"id":"0fa3a349-4c4d-4c14-b37a-47981df41c07","name":"Clemmy Brik","location":"Nanterre","address":"97642 Larry Road","industryType":"Banking"},
{"id":"d39caa7e-2a8a-4fff-a047-a990ba10630a","name":"Arielle Farlam","location":"Alikalia","address":"9 Starling Circle","industryType":"Logistics"},
{"id":"afaed30c-ae1a-4506-ab03-7d65815c2cc4","name":"Chickie Mines","location":"Badu","address":"3480 Springs Drive","industryType":"Logistics"},
{"id":"a3bc6592-99ee-4622-a8b5-37a4adb88cca","name":"Windham Olekhov","location":"At Tall al Kabīr","address":"6 Elmside Way","industryType":"Logistics"},
{"id":"e4e908ac-ca75-4fb7-a260-ee0e3c812957","name":"Diego Dillingham","location":"Mishima","address":"7 Milwaukee Terrace","industryType":"Logistics"},
{"id":"81527b74-9f49-4d73-995c-d2ad09521ee0","name":"Elianore Bernardez","location":"Tīrān","address":"647 Luster Alley","industryType":"Media"},
{"id":"ff47cbeb-cfbd-4566-9cd5-19a30cf95ff0","name":"Tab Creamer","location":"Daniëlskuil","address":"49 Melrose Drive","industryType":"Banking"},
{"id":"dd869cce-3234-49d3-8a8b-ae0e0a066674","name":"Kathie Katte","location":"Juntang","address":"084 Carpenter Place","industryType":"Logistics"},
{"id":"870d84a2-d041-4616-8539-bacd3fd6b8ee","name":"Trip Eberdt","location":"Shijiang","address":"2 Waxwing Street","industryType":"Banking"},
{"id":"4c5340c7-25a4-4f41-ab40-a8c1ccc091f3","name":"Abbott Crannach","location":"Jardín","address":"7506 Nevada Point","industryType":"Banking"},
{"id":"fbd1e69d-f169-4cc0-9ce2-a588493dedde","name":"Florian Castro","location":"Calapan","address":"7062 Bunker Hill Terrace","industryType":"Insurance"},
{"id":"ad8c0f29-e13f-42b4-96ec-57c8156f835f","name":"Noellyn Pinnegar","location":"Rogowo","address":"6300 Sunfield Hill","industryType":"Logistics"},
{"id":"b449f6d6-4f03-4500-a0f2-c942c5712407","name":"Beatrisa Eaton","location":"Kālābāgh","address":"4079 Hallows Drive","industryType":"Banking"},
{"id":"9ee529dd-bb8a-47b8-a222-e208c072f599","name":"Reena Terzza","location":"Sundsvall","address":"01 Eggendart Avenue","industryType":"Banking"},
{"id":"1434186c-8dd0-447f-aa9e-e47ca3f99ec0","name":"Roland Cowing","location":"Osias","address":"55788 Jenna Parkway","industryType":"Insurance"},
{"id":"94075c1f-25f6-4c67-809c-f1babb6d4dfd","name":"Claudia Genery","location":"Huangxikou","address":"253 Hanson Drive","industryType":"Banking"},
{"id":"2bedc3ab-16f4-4ada-8155-75ec059a6456","name":"Kelbee Adolf","location":"Tarariras","address":"096 Raven Plaza","industryType":"Media"},
{"id":"fddaa764-02bd-433a-8b8a-31392dac75a5","name":"Lorianne Gateman","location":"Nāḩiyat as Sab‘ Biyār","address":"58542 Mesta Terrace","industryType":"Insurance"},
{"id":"438eeaa8-5dbc-4243-a277-b356ecef15fc","name":"Trstram Breston","location":"Luoyang","address":"9294 Burning Wood Hill","industryType":"Banking"},
{"id":"c4c385d2-2b91-40dc-bf1d-bd6aeefee46e","name":"Marcelle MacGlory","location":"San Gabriel","address":"2668 Butterfield Lane","industryType":"Retail"},
{"id":"5c704012-a59c-45b0-96ff-c50e5a28518f","name":"Grove Landrick","location":"Krajan Jabungcandi","address":"87 Carberry Center","industryType":"Logistics"},
{"id":"abc351ad-77e4-4158-b453-c885da8cd81e","name":"Giulia Featherstone","location":"Täby","address":"76 Lunder Terrace","industryType":"Banking"},
{"id":"86c683c1-2a39-4199-8b6f-894bcf9e8e2a","name":"Nils Giblin","location":"‘Amrān","address":"0210 Karstens Place","industryType":"Logistics"},
{"id":"3b761dd9-736d-4e54-85c8-9c10ded3eda5","name":"Nevile Semrad","location":"Příbram","address":"3 Fairfield Alley","industryType":"Insurance"},
{"id":"7a0d1ef7-557b-40eb-b3a4-43058b619ac9","name":"Cherilyn McGlashan","location":"Wairinding","address":"45 Dryden Park","industryType":"Insurance"},
{"id":"c9eda31d-4119-460a-86b8-86e8350b085e","name":"Russ Beams","location":"Zhanlong","address":"5 Jana Park","industryType":"Logistics"},
{"id":"776a90d4-d36f-4b1a-83e6-934dd1862fdf","name":"Alicia Baines","location":"Bīrganj","address":"332 Melby Park","industryType":"Logistics"},
{"id":"c099a6cc-480f-4855-b980-5654421a5fcb","name":"Wynn Mullis","location":"Ya‘bad","address":"43077 Hansons Drive","industryType":"Banking"},
{"id":"4c4013ec-4169-4d2d-9824-dfc1459b9f24","name":"Ki Briatt","location":"Itapema","address":"0 Nova Trail","industryType":"Logistics"},
{"id":"c1dcf38a-92a3-4a1b-9ac7-2e4571aa4bdf","name":"Tiff Bratt","location":"Causwagan","address":"1878 Norway Maple Avenue","industryType":"Banking"},
{"id":"ec0249b0-edd2-41da-9008-cf63d8f5fe20","name":"Andonis Moscrop","location":"Greater Napanee","address":"907 Michigan Pass","industryType":"Logistics"},
{"id":"b5477c32-c33c-4ed7-bfbf-2cb4e90c4d03","name":"Jacklyn Hallgath","location":"Gaotang","address":"54992 Eagle Crest Center","industryType":"Retail"},
{"id":"b1d37bc3-16c8-4703-a0a8-f649d442ae42","name":"Merry Thurborn","location":"Brejieira","address":"9 Pierstorff Park","industryType":"Logistics"},
{"id":"8bc4fbc8-307f-4ed7-b4e1-c962031d05a6","name":"Eugenia Kubacek","location":"L'Île-Perrot","address":"74 Arizona Plaza","industryType":"Insurance"},
{"id":"1ebf7b42-ae1b-4b14-b729-b17ccab2a492","name":"Inger Jakubowicz","location":"Thị Trấn Bình Mỹ","address":"32577 Lillian Street","industryType":"Banking"},
{"id":"98af001f-9799-4153-998d-68513a790869","name":"Monica Carneck","location":"Velká Bíteš","address":"348 Sundown Junction","industryType":"Banking"},
{"id":"af297163-a520-4539-8c8f-31a1222eb941","name":"Theo Ghidoni","location":"Mineiros","address":"66 Sloan Parkway","industryType":"Logistics"},
{"id":"eed24436-0a61-4317-9f38-9f1b4872d625","name":"Carlotta Shave","location":"Parfino","address":"503 Carberry Junction","industryType":"Logistics"},
{"id":"43778ca2-39c8-472d-9c09-14fd316b984e","name":"Rosemary Creser","location":"Minuwangoda","address":"60 Luster Parkway","industryType":"Logistics"},
{"id":"aa3ace33-c9e7-4281-8a81-9e162d59e930","name":"Francklyn Ondricek","location":"General Enrique Godoy","address":"116 Eliot Parkway","industryType":"Logistics"},
{"id":"3b418400-fa0c-4599-9f07-b1704db3cb38","name":"Allyce Lynes","location":"Freguesia do Ribeirao da Ilha","address":"1747 Dawn Drive","industryType":"Logistics"},
{"id":"88f10f82-4825-4fb4-9423-fa896ec977a3","name":"Lina Newlove","location":"Wuyahe","address":"6 Onsgard Way","industryType":"Banking"},
{"id":"6a0147e3-41c5-44ce-8595-d7c0f5d5a734","name":"Broddie Craighall","location":"Camperdown","address":"6 Judy Court","industryType":"Logistics"},
{"id":"d8a6a1aa-1ae7-4fd6-b0ba-53ffa74179da","name":"Fiorenze Darrel","location":"Petite Anse","address":"672 Melrose Point","industryType":"Insurance"},
{"id":"8c76bd2a-197e-4a56-86c1-388ff5f253b7","name":"Evangeline Van der Hoven","location":"Ansongo","address":"5976 Darwin Parkway","industryType":"Banking"},
{"id":"40c07bfe-9bb0-4574-baa3-197984c92484","name":"Fay Mularkey","location":"Al Badārī","address":"08 2nd Park","industryType":"Retail"},
{"id":"b429f9e3-3c47-41ac-84c4-ba895c80e2c2","name":"Charita Jaggard","location":"Sawangan","address":"674 Manufacturers Drive","industryType":"Insurance"},
{"id":"3f17e319-9886-4d80-a6ac-f5aca2f6cd18","name":"Andria Loins","location":"Hexing","address":"62 Claremont Junction","industryType":"Logistics"},
{"id":"a69c78b2-ffa0-4bd4-812e-159e418b267b","name":"Lamar Thominga","location":"Infanta","address":"44476 Eggendart Road","industryType":"Logistics"},
{"id":"1e17f8ca-7390-4723-aa2a-d26503f7e86a","name":"Dore Gorrick","location":"Albina","address":"929 Clarendon Place","industryType":"Logistics"},
{"id":"fbf4ad06-33f9-446c-ae2e-e1fad460eb84","name":"Riley Portal","location":"Ikar","address":"50699 Hoard Trail","industryType":"Logistics"},
{"id":"129d30c0-c7a9-4e36-9903-c7cdf3c14ed0","name":"Zedekiah Fairham","location":"Haparanda","address":"5 Messerschmidt Place","industryType":"Logistics"},
{"id":"65c1f423-475f-47e8-b3aa-0afe70ad1f31","name":"Berna Hollingsby","location":"Mompach","address":"69076 Bellgrove Road","industryType":"Banking"},
{"id":"de3dc820-87ff-44a2-97b2-89b5dcdba96a","name":"Care Le Blanc","location":"Lycksele","address":"49752 Monica Center","industryType":"Retail"},
{"id":"e1e4fd87-7f01-4064-a246-47ec40481b4b","name":"Walt Littell","location":"Ai Tu","address":"6 Corry Circle","industryType":"Banking"}]